School,Locality,Number of students enrolled in a Vocational Education and Training (VET) certificate,Percentage of VCE students applying for tertiary places through the Victorian Tertiary Admissions Centre (VTAC),Percentage of satisfactory VCE completions,Median VCE study score,Percentage of study scores of 40 and over,ACARA SML ID,Location AGE ID,School AGE ID,Rolled School ID,School Name,Suburb,State,Postcode,School Sector,School Type,Special school,Campus Type,Latitude,Longitude,ABS Remoteness Area,ABS Remoteness Area Name,Meshblock,Statistical Area 1,Statistical Area 2,Statistical Area 2 Name,Statistical Area 3,Statistical Area 3 Name,Statistical Area 4,Statistical Area 4 Name,Local Government Area,Local Government Area Name,State Electoral Division,State Electoral Division Name,Commonwealth Electoral Division,Commonwealth Electoral Division Name
Academy of Mary Immaculate,FITZROY,20,93.2,100,32,11.3,45704,40739,739,45704,Academy of Mary Immaculate,FITZROY,VIC,3065,Catholic,Secondary,0,School Single Entity,-37.803711,144.974409,0,Major Cities,20639260000,20607114213,206071142,Fitzroy,20607,Yarra,206,Melbourne - Inner,27350,Yarra,27103,Richmond (Northern Metropolitan),233,Melbourne
Aitken College,GREENVALE,97,91.2,99,28,4.6,46353,56324,16324,46353,Aitken College,GREENVALE,VIC,3059,Independent,Combined,0,School Single Entity,-37.627398,144.888422,0,Major Cities,20631913790,21005124637,210051246,Greenvale - Bulla,21005,Tullamarine - Broadmeadows,210,Melbourne - North West,23270,Hume,23503,Greenvale (Northern Metropolitan),205,Calwell
Al Iman College,MELTON SOUTH,-,71.4,100,26,0.8,52380,70322,30322,52380,Al Iman College,MELTON SOUTH,VIC,3338,Independent,Combined,0,School Single Entity,-37.706956,144.564872,0,Major Cities,20631941790,21304157811,213041578,Melton South - Weir Views,21304,Melton - Bacchus Marsh,213,Melbourne - West,24650,Melton,24808,Melton (Western Victoria),219,Hawke
Al Siraat College,EPPING,118,97.9,98,31,6.8,46390,68556,28556,46390,Al Siraat College,EPPING,VIC,3076,Independent,Combined,0,School Single Entity,-37.62426056,145.0375337,0,Major Cities,20631915720,20904143114,209041431,Epping - East,20904,Whittlesea - Wallan,209,Melbourne - North East,27070,Whittlesea,25002,Mill Park (North-Eastern Metropolitan),237,Scullin
Al-Taqwa College,TRUGANINA,30,94.9,100,34,9.7,46309,45556,5556,46309,Al-Taqwa College,HOPPERS CROSSING,VIC,3029,Independent,Combined,0,School Head Campus,-37.85265,144.722023,0,Major Cities,20628100000,21305158810,213051588,Truganina - South West,21305,Wyndham,213,Melbourne - West,27260,Wyndham,24307,Laverton (Western Metropolitan),228,Lalor
Albert Park College,ALBERT PARK,49,84.4,99,31,9,50267,69044,29044,50267,Albert Park College,ALBERT PARK,VIC,3206,Government,Secondary,0,School Head Campus,-37.84436706,144.9474157,0,Major Cities,20532020000,20605112809,206051128,Albert Park,20605,Port Phillip,206,Melbourne - Inner,25900,Port Phillip,20106,Albert Park (Southern Metropolitan),229,Macnamara
Alexandra Secondary College,ALEXANDRA,54,51.4,91,24,2.6,45349,51684,11684,45349,Alexandra Secondary College,ALEXANDRA,VIC,3714,Government,Secondary,0,School Single Entity,-37.19449,145.701477,1,Inner Regional,20509200000,20401105411,204011054,Alexandra,20401,Upper Goulburn Valley,204,Hume,25620,Murrindindi,22304,Eildon (Northern Victoria),223,Indi
Alia College,HAWTHORN EAST,< 4,37.5,81,24,2.1,46354,56610,16610,46354,Alia College,HAWTHORN EAST,VIC,3123,Independent,Secondary,0,School Single Entity,-37.843225,145.045173,0,Major Cities,20071601000,20701115203,207011152,Hawthorn East,20701,Boroondara,207,Melbourne - Inner East,21110,Boroondara,23706,Hawthorn (Southern Metropolitan),226,Kooyong
Alice Miller School,MACEDON,29,76.7,100,32,12.2,52381,70324,30324,52381,Alice Miller School,MACEDON,VIC,3440,Independent,Combined,0,School Head Campus,-37.44664,144.531585,1,Inner Regional,20356350000,21002123306,210021233,Macedon,21002,Macedon Ranges,210,Melbourne - North West,24130,Macedon Ranges,24504,Macedon (Northern Victoria),232,McEwen
Alkira Secondary College,CRANBOURNE NORTH,176,66.5,96,29,2.8,45604,68854,28854,45604,Alkira Secondary College,CRANBOURNE NORTH,VIC,3977,Government,Secondary,0,School Single Entity,-38.073313,145.310519,0,Major Cities,20631994660,21203155905,212031559,Cranbourne North - East,21203,Casey - South,212,Melbourne - South East,21610,Casey,25905,Narre Warren South (South-Eastern Metropolitan),221,Holt
Alphington Grammar School,ALPHINGTON,-,100,100,30,12.4,46316,53338,13338,46316,Alphington Grammar School,ALPHINGTON,VIC,3078,Independent,Combined,0,School Single Entity,-37.780429,145.036174,0,Major Cities,20639390000,20607114513,206071145,Clifton Hill - Alphington,20607,Yarra,206,Melbourne - Inner,27350,Yarra,26203,Northcote (Northern Metropolitan),208,Cooper
Altona College,ALTONA,46,40.6,100,26,3.9,45587,47543,7543,45587,Altona College,ALTONA,VIC,3018,Government,Combined,0,School Single Entity,-37.86152274,144.8172644,0,Major Cities,20278350000,21302134128,213021341,Altona,21302,Hobsons Bay,213,Melbourne - West,23110,Hobsons Bay,28707,Williamstown (Western Metropolitan),215,Gellibrand
Antonine College,PASCOE VALE SOUTH,72,74.6,95,26,3.3,46112,62824,22824,46112,Antonine College,PASCOE VALE SOUTH,VIC,3044,Catholic,Combined,0,School Head Campus,-37.741099,144.942754,0,Major Cities,20466830000,20601110903,206011109,Pascoe Vale South,20601,Brunswick - Coburg,206,Melbourne - Inner,24700,Merri-bek,26603,Pascoe Vale (Northern Metropolitan),239,Wills
Apollo Bay P-12 College,APOLLO BAY,30,63.6,100,30,10.7,45292,49607,9607,45292,Apollo Bay P-12 College,APOLLO BAY,VIC,3233,Government,Combined,0,School Single Entity,-38.753524,143.660507,1,Inner Regional,20134790000,21703147605,217031476,Otway,21703,Colac - Corangamite,217,Warrnambool and South West,21750,Colac Otway,26808,Polwarth (Western Victoria),238,Wannon
Aquinas College,RINGWOOD,183,76.4,99,29,5.1,45947,40747,747,45947,Aquinas College,RINGWOOD,VIC,3134,Catholic,Secondary,0,School Single Entity,-37.82303115,145.2351833,0,Major Cities,20388140000,21103126605,211031266,Ringwood,21103,Maroondah,211,Melbourne - Outer East,24410,Maroondah,27202,Ringwood (North-Eastern Metropolitan),211,Deakin
Ararat Secondary College,ARARAT,47,29.6,89,26,1.2,45523,50588,10588,45523,Ararat Secondary College,ARARAT,VIC,3377,Government,Secondary,0,School Head Campus,-37.28599961,142.9219615,1,Inner Regional,20004070000,21501138623,215011386,Ararat,21501,Grampians,215,North West,20260,Ararat,27308,Ripon (Western Victoria),238,Wannon
Armstrong Creek School,ARMSTRONG CREEK,6,-,-,-,-,52589,85301,85300,52589,Armstrong Creek School,ARMSTRONG CREEK,VIC,3217,Government,Primary,0,School Head Campus,-38.231392,144.36414,0,Major Cities,21340750000,20303148910,203031489,Barwon Heads - Armstrong Creek,20303,Surf Coast - Bellarine Peninsula,203,Geelong,22750,Greater Geelong,27708,South Barwon (Western Victoria),209,Corangamite
Ashwood High School,ASHWOOD,44,72,99,31,8.1,45518,46191,6191,45518,Ashwood High School,ASHWOOD,VIC,3147,Government,Secondary,0,School Single Entity,-37.86409815,145.1034098,0,Major Cities,20442320000,21205131913,212051319,Ashwood - Chadstone,21205,Monash,212,Melbourne - South East,24970,Monash,20206,Ashwood (Southern Metropolitan),207,Chisholm
Assumption College,KILMORE,237,56.9,100,28,2.2,45647,53936,13936,45647,Assumption College,KILMORE,VIC,3764,Catholic,Secondary,0,School Single Entity,-37.301013,144.947629,1,Inner Regional,20631929540,20401105630,204011056,Kilmore - Broadford,20401,Upper Goulburn Valley,204,Hume,24850,Mitchell,22704,Euroa (Northern Victoria),232,McEwen
Auburn High School,HAWTHORN EAST,12,85.9,99,31,8.6,50684,70188,30188,50684,Auburn High School,HAWTHORN EAST,VIC,3123,Government,Secondary,0,School Single Entity,-37.839849,145.044628,0,Major Cities,20070040000,20701115203,207011152,Hawthorn East,20701,Boroondara,207,Melbourne - Inner East,21110,Boroondara,23706,Hawthorn (Southern Metropolitan),226,Kooyong
Ave Maria College,ABERFELDIE,71,97.7,100,31,10.5,45958,40749,749,45958,Ave Maria College,ABERFELDIE,VIC,3040,Catholic,Secondary,0,School Single Entity,-37.756618,144.897964,0,Major Cities,20445930000,20603150120,206031501,Essendon (West) - Aberfeldie,20603,Essendon,206,Melbourne - Inner,25060,Moonee Valley,26107,Niddrie (Western Metropolitan),231,Maribyrnong
Avila College,MOUNT WAVERLEY,84,92.4,99,32,11.5,45976,40750,750,45976,Avila College,MOUNT WAVERLEY,VIC,3149,Catholic,Secondary,0,School Single Entity,-37.874671,145.133255,0,Major Cities,20439040000,21205132314,212051323,Mount Waverley - North,21205,Monash,212,Melbourne - South East,24970,Monash,20206,Ashwood (Southern Metropolitan),207,Chisholm
Bacchus Marsh College,BACCHUS MARSH,142,57.4,97,24,0.3,45525,50083,10083,45525,Bacchus Marsh College,BACCHUS MARSH,VIC,3340,Government,Secondary,0,School Single Entity,-37.68562875,144.4330584,0,Major Cities,20457840000,21304135301,213041353,Bacchus Marsh,21304,Melton - Bacchus Marsh,213,Melbourne - West,25150,Moorabool,22608,Eureka (Western Victoria),219,Hawke
Baimbridge College,HAMILTON,73,30.3,85,26,0,45552,55916,15916,45552,Baimbridge College,HAMILTON,VIC,3300,Government,Secondary,0,School Single Entity,-37.733311,142.014634,1,Inner Regional,20540660000,21701142120,217011421,Hamilton (Vic.),21701,Glenelg - Southern Grampians,217,Warrnambool and South West,26260,Southern Grampians,24408,Lowan (Western Victoria),238,Wannon
Bairnsdale Secondary College,BAIRNSDALE,202,43.9,96,26,1.1,45489,52086,12086,45489,Bairnsdale Secondary College,BAIRNSDALE,VIC,3875,Government,Secondary,0,School Head Campus,-37.83202616,147.6220376,2,Outer Regional,20157550000,20502108110,205021081,Bairnsdale,20502,Gippsland - East,205,Latrobe - Gippsland,22110,East Gippsland,23201,Gippsland East (Eastern Victoria),216,Gippsland
Balcombe Grammar School,MOUNT MARTHA,21,75.7,100,30,5.2,46383,67586,27586,46383,Balcombe Grammar School,MOUNT MARTHA,VIC,3934,Independent,Combined,0,School Single Entity,-38.2738,145.033,0,Major Cities,20631968320,21402138235,214021382,Mount Martha,21402,Mornington Peninsula,214,Mornington Peninsula,25340,Mornington Peninsula,25301,Mornington (Eastern Victoria),213,Flinders
Ballarat Christian College,SEBASTOPOL,40,62.5,100,25,0,46384,66580,26580,46384,Ballarat Christian College,SEBASTOPOL,VIC,3356,Independent,Combined,0,School Single Entity,-37.59333224,143.843249,1,Inner Regional,20014911000,20101148425,201011484,Sebastopol - Redan,20101,Ballarat,201,Ballarat,20570,Ballarat,28508,Wendouree (Western Victoria),202,Ballarat
Ballarat Clarendon College,BALLARAT,103,92.6,100,37,34.7,46146,56351,16351,46146,Ballarat Clarendon College,BALLARAT,VIC,3350,Independent,Combined,0,School Head Campus,-37.55964761,143.8336504,1,Inner Regional,20631984730,20101100206,201011002,Ballarat,20101,Ballarat,201,Ballarat,20570,Ballarat,28508,Wendouree (Western Victoria),202,Ballarat
Ballarat Grammar,WENDOUREE,132,80.9,100,32,11.7,46166,56352,16352,46166,Ballarat Grammar,WENDOUREE,VIC,3355,Independent,Combined,0,School Head Campus,-37.539237,143.83083,1,Inner Regional,20011271000,20101100825,201011008,Wendouree - Miners Rest,20101,Ballarat,201,Ballarat,20570,Ballarat,28508,Wendouree (Western Victoria),202,Ballarat
Ballarat High School,BALLARAT,273,50,96,29,2.2,45350,50119,10119,45350,Ballarat High School,LAKE GARDENS,VIC,3350,Government,Secondary,0,School Single Entity,-37.554234,143.817713,1,Inner Regional,20011660000,20101100202,201011002,Ballarat,20101,Ballarat,201,Ballarat,20570,Ballarat,28508,Wendouree (Western Victoria),202,Ballarat
Balwyn High School,BALWYN NORTH,26,92.4,100,32,14.7,45351,48243,8243,45351,Balwyn High School,BALWYN NORTH,VIC,3104,Government,Secondary,0,School Single Entity,-37.79785922,145.0767724,0,Major Cities,20057640000,20701114823,207011148,Balwyn North,20701,Boroondara,207,Melbourne - Inner East,21110,Boroondara,24006,Kew (Southern Metropolitan),226,Kooyong
Bannockburn P-12 College,BANNOCKBURN,99,40.4,95,23,1.5,44168,50044,10044,44168,Bannockburn P-12 College,BANNOCKBURN,VIC,3331,Government,Combined,0,School Single Entity,-38.047092,144.16951,1,Inner Regional,20631915640,20301103413,203011034,Bannockburn,20301,Barwon - West,203,Geelong,22490,Golden Plains,23108,Geelong (Western Victoria),209,Corangamite
Bass Coast College,WONTHAGGI,310,53.1,95,28,3.6,40597,52276,12276,40597,Bass Coast College,WONTHAGGI,VIC,3995,Government,Secondary,0,School Head Campus,-38.609807,145.597177,1,Inner Regional,20681530000,20503109314,205031093,Wonthaggi - Inverloch,20503,Gippsland - South West,205,Latrobe - Gippsland,20740,Bass Coast,20301,Bass (Eastern Victoria),235,Monash
Bayside Christian College,LANGWARRIN SOUTH,45,52.9,98,30,3.6,46271,44000,4000,46271,Bayside Christian College,LANGWARRIN SOUTH,VIC,3911,Independent,Combined,0,School Single Entity,-38.178632,145.16302,0,Major Cities,20631911920,21401137426,214011374,Langwarrin,21401,Frankston,214,Mornington Peninsula,22170,Frankston,23601,Hastings (Eastern Victoria),212,Dunkley
Bayside P-12 College,NEWPORT,118,58.7,99,28,2.3,45538,56370,16370,45538,Bayside P-12 College,WILLIAMSTOWN,VIC,3016,Government,Combined,0,School Head Campus,-37.85770007,144.8852138,0,Major Cities,20285760000,21302134622,213021346,Williamstown,21302,Hobsons Bay,213,Melbourne - West,23110,Hobsons Bay,28707,Williamstown (Western Metropolitan),215,Gellibrand
Bayswater Secondary College,BAYSWATER,70,44.4,93,26,0,45352,48992,8992,45352,Bayswater Secondary College,BAYSWATER,VIC,3153,Government,Secondary,0,School Single Entity,-37.83903,145.261998,0,Major Cities,20326850000,21101125120,211011251,Bayswater,21101,Knox,211,Melbourne - Outer East,23670,Knox,20402,Bayswater (North-Eastern Metropolitan),201,Aston
Bayview College,PORTLAND,26,74.2,100,27,1.4,46161,55834,15834,46161,Bayview College,PORTLAND,VIC,3305,Independent,Secondary,0,School Single Entity,-38.3452,141.606,2,Outer Regional,20631941960,21701142232,217011422,Portland,21701,Glenelg - Southern Grampians,217,Warrnambool and South West,22410,Glenelg,27808,South-West Coast (Western Victoria),238,Wannon
Beaufort Secondary College,BEAUFORT,53,32,88,27,0,45353,50582,10582,45353,Beaufort Secondary College,BEAUFORT,VIC,3373,Government,Secondary,0,School Single Entity,-37.43831986,143.3825468,1,Inner Regional,20534150000,20103101401,201031014,Beaufort,20103,Maryborough - Pyrenees,201,Ballarat,25990,Pyrenees,27308,Ripon (Western Victoria),238,Wannon
Beaumaris Secondary College,BEAUMARIS,42,77.2,99,30,5.9,52592,85307,85306,52592,Beaumaris Secondary College,BEAUMARIS,VIC,3193,Government,Secondary,0,School Single Entity,-37.98163,145.033698,0,Major Cities,20050220000,20801116807,208011168,Beaumaris,20801,Bayside,208,Melbourne - Inner South,20910,Bayside (Vic.),27506,Sandringham (Southern Metropolitan),217,Goldstein
Beechworth Secondary College,BEECHWORTH,37,60,96,28,6.5,45354,51722,11722,45354,Beechworth Secondary College,BEECHWORTH,VIC,3747,Government,Secondary,0,School Single Entity,-36.34719449,146.6906422,1,Inner Regional,20304610000,20403106811,204031068,Beechworth,20403,Wodonga - Alpine,204,Hume,23350,Indigo,20604,Benambra (Northern Victoria),223,Indi
Bellarine Secondary College,DRYSDALE,170,44.7,94,28,4.9,45456,55639,15639,45456,Bellarine Secondary College,DRYSDALE,VIC,3222,Government,Secondary,0,School Head Campus,-38.191069,144.556993,1,Inner Regional,20264000000,20303104831,203031048,Clifton Springs,20303,Surf Coast - Bellarine Peninsula,203,Geelong,22750,Greater Geelong,20508,Bellarine (Western Victoria),209,Corangamite
Belmont High School,BELMONT,208,54.7,97,29,4.5,45355,49478,9478,45355,Belmont High School,BELMONT,VIC,3216,Government,Secondary,0,School Head Campus,-38.17555773,144.3305875,0,Major Cities,20256260000,20302103714,203021037,Belmont,20302,Geelong,203,Geelong,22750,Greater Geelong,27708,South Barwon (Western Victoria),210,Corio
Benalla P-12 College,BENALLA,86,41.3,98,24,0.8,50569,69978,29978,50569,Benalla P-12 College,BENALLA,VIC,3672,Government,Combined,0,School Head Campus,-36.553372,145.963847,1,Inner Regional,20053970000,20402106305,204021063,Benalla,20402,Wangaratta - Benalla,204,Hume,21010,Benalla,22704,Euroa (Northern Victoria),223,Indi
Bentleigh Secondary College,BENTLEIGH EAST,116,64.1,92,30,5.6,45338,54988,14988,45338,Bentleigh Secondary College,BENTLEIGH EAST,VIC,3165,Government,Secondary,0,School Single Entity,-37.92767095,145.0599114,0,Major Cities,20196650000,20802142702,208021427,Bentleigh East - South,20802,Glen Eira,208,Melbourne - Inner South,22310,Glen Eira,20906,Bentleigh (Southern Metropolitan),222,Hotham
Berwick Secondary College,BERWICK,136,61,97,29,2.6,45356,51847,11847,45356,Berwick Secondary College,BERWICK,VIC,3806,Government,Secondary,0,School Single Entity,-38.031068,145.364182,0,Major Cities,20109970000,21202129336,212021293,Berwick - North,21202,Casey - North,212,Melbourne - South East,21610,Casey,21005,Berwick (South-Eastern Metropolitan),227,La Trobe
Beth Rivkah Ladies College,ST KILDA EAST,61,61.3,100,35,23.5,46216,77090,1301,46216,Beth Rivkah Ladies College,ST KILDA EAST,VIC,3183,Independent,Combined,0,School Single Entity,-37.869629,145.001684,0,Major Cities,20631934460,20802117751,208021177,Caulfield - North,20802,Glen Eira,208,Melbourne - Inner South,22310,Glen Eira,21806,Caulfield (Southern Metropolitan),229,Macnamara
Bialik College,HAWTHORN,98,98.8,100,36,29.7,46221,40753,753,46221,Bialik College,HAWTHORN,VIC,3122,Independent,Combined,0,School Single Entity,-37.84197,145.043299,0,Major Cities,20071592000,20701115203,207011152,Hawthorn East,20701,Boroondara,207,Melbourne - Inner East,21110,Boroondara,23706,Hawthorn (Southern Metropolitan),226,Kooyong
Billanook College,MOOROOLBARK,53,93.1,100,31,7,46264,42482,2482,46264,Billanook College,MOOROOLBARK,VIC,3138,Independent,Combined,0,School Single Entity,-37.78785168,145.3388701,0,Major Cities,20652110000,21105128119,211051281,Mooroolbark,21105,Yarra Ranges,211,Melbourne - Outer East,27450,Yarra Ranges,22801,Evelyn (Eastern Victoria),206,Casey
Birchip P-12 School,BIRCHIP,29,52.6,100,31,10.4,45568,50894,10894,45568,Birchip P-12 School,BIRCHIP,VIC,3483,Government,Combined,0,School Single Entity,-35.98438249,142.9099365,2,Outer Regional,20094280000,21503140018,215031400,Buloke,21503,Murray River - Swan Hill,215,North West,21270,Buloke,24904,Mildura (Northern Victoria),230,Mallee
Blackburn High School,BLACKBURN,87,78.2,100,31,8.1,45357,48389,8389,45357,Blackburn High School,BLACKBURN,VIC,3130,Government,Secondary,0,School Single Entity,-37.81037,145.149893,0,Major Cities,20604800000,20703116134,207031161,Blackburn,20703,Whitehorse - West,207,Melbourne - Inner East,26980,Whitehorse,21102,Box Hill (North-Eastern Metropolitan),234,Menzies
Boort District P-12 School,BOORT,24,69.6,96,30,6.2,50271,69142,29142,50271,Boort District P-12 School,BOORT,VIC,3537,Government,Combined,0,School Single Entity,-36.11042086,143.7268142,2,Outer Regional,20351330000,20203103315,202031033,Loddon,20203,Loddon - Elmore,202,Bendigo,23940,Loddon,25604,Murray Plains (Northern Victoria),230,Mallee
Boronia K-12 College,BORONIA,44,65.8,92,27,0.8,44703,69810,29810,44703,Boronia K-12 College,BORONIA,VIC,3155,Government,Combined,0,School Single Entity,-37.858934,145.289416,0,Major Cities,20329740000,21101144607,211011446,Boronia,21101,Knox,211,Melbourne - Outer East,23670,Knox,20402,Bayswater (North-Eastern Metropolitan),201,Aston
Box Hill High School,BOX HILL,57,89.4,98,32,11.8,45359,48381,8381,45359,Box Hill High School,BOX HILL,VIC,3128,Government,Secondary,0,School Single Entity,-37.82009053,145.1375387,0,Major Cities,20592450000,20703116311,207031163,Box Hill,20703,Whitehorse - West,207,Melbourne - Inner East,26980,Whitehorse,21102,Box Hill (North-Eastern Metropolitan),207,Chisholm
Braemar College,WOODEND,50,82.9,99,32,7.2,46238,56354,16354,46238,Braemar College,WOODEND,VIC,3442,Independent,Combined,0,School Head Campus,-37.36376572,144.5763245,1,Inner Regional,20356262000,21002123304,210021233,Macedon,21002,Macedon Ranges,210,Melbourne - North West,24130,Macedon Ranges,24504,Macedon (Northern Victoria),232,McEwen
Braybrook College,BRAYBROOK,323,83.4,98,31,8.1,45360,46184,6184,45360,Braybrook College,BRAYBROOK,VIC,3019,Government,Secondary,0,School Single Entity,-37.777975,144.847568,0,Major Cities,20376900000,21303134717,213031347,Braybrook,21303,Maribyrnong,213,Melbourne - West,24330,Maribyrnong,24307,Laverton (Western Metropolitan),214,Fraser
Brentwood Secondary College,GLEN WAVERLEY,107,82.6,100,30,5.9,45361,48905,8905,45361,Brentwood Secondary College,GLEN WAVERLEY,VIC,3150,Government,Secondary,0,School Single Entity,-37.89950842,145.1663432,0,Major Cities,20431190000,21205132106,212051321,Glen Waverley - East,21205,Monash,212,Melbourne - South East,24970,Monash,23402,Glen Waverley (North-Eastern Metropolitan),207,Chisholm
Bright P-12 College,BRIGHT,49,43.8,97,29,5.1,44140,54892,14892,44140,Bright P-12 College,BRIGHT,VIC,3741,Government,Combined,0,School Head Campus,-36.733105,146.960928,2,Outer Regional,20001400000,20403106910,204031069,Bright - Mount Beauty,20403,Wodonga - Alpine,204,Hume,20110,Alpine,26404,Ovens Valley (Northern Victoria),223,Indi
Brighton Grammar School,BRIGHTON,15,93.3,100,35,24.3,46200,42428,2428,46200,Brighton Grammar School,BRIGHTON,VIC,3186,Independent,Combined,0,School Single Entity,-37.911108,144.993524,0,Major Cities,20631926870,20801116915,208011169,Brighton (Vic.),20801,Bayside,208,Melbourne - Inner South,20910,Bayside (Vic.),21206,Brighton (Southern Metropolitan),217,Goldstein
Brighton Secondary College,BRIGHTON EAST,59,85.2,99,30,6.3,45362,49274,9274,45362,Brighton Secondary College,BRIGHTON EAST,VIC,3187,Government,Secondary,0,School Single Entity,-37.920156,145.019119,0,Major Cities,20044250000,20801117013,208011170,Brighton East,20801,Bayside,208,Melbourne - Inner South,20910,Bayside (Vic.),21206,Brighton (Southern Metropolitan),217,Goldstein
Broadford Secondary College,BROADFORD,107,54.4,98,22,0.7,45363,51510,11510,45363,Broadford Secondary College,BROADFORD,VIC,3658,Government,Secondary,0,School Single Entity,-37.204375,145.040033,1,Inner Regional,20419570000,20401105606,204011056,Kilmore - Broadford,20401,Upper Goulburn Valley,204,Hume,24850,Mitchell,22704,Euroa (Northern Victoria),236,Nicholls
Brunswick Secondary College,BRUNSWICK,79,76.8,97,30,8.8,45545,46256,6256,45545,Brunswick Secondary College,BRUNSWICK,VIC,3056,Government,Secondary,0,School Single Entity,-37.77099,144.956515,0,Major Cities,20465220000,20601149618,206011496,Brunswick - South,20601,Brunswick - Coburg,206,Melbourne - Inner,24700,Merri-bek,21403,Brunswick (Northern Metropolitan),239,Wills
Buckley Park College,ESSENDON,49,82.5,99,29,5.7,45364,47995,7995,45364,Buckley Park College,ESSENDON,VIC,3040,Government,Secondary,0,School Single Entity,-37.747117,144.897755,0,Major Cities,20448190000,20603150117,206031501,Essendon (West) - Aberfeldie,20603,Essendon,206,Melbourne - Inner,25060,Moonee Valley,26107,Niddrie (Western Metropolitan),231,Maribyrnong
Bundoora Secondary College,BUNDOORA,112,40.6,89,26,1.7,45395,56058,16058,45395,Bundoora Secondary College,BUNDOORA,VIC,3083,Government,Secondary,0,School Single Entity,-37.70757147,145.061579,0,Major Cities,20025830000,20901119602,209011196,Bundoora - East,20901,Banyule,209,Melbourne - North East,20660,Banyule,21602,Bundoora (North-Eastern Metropolitan),225,Jagajaga
Camberwell Grammar School,CANTERBURY,75,98.8,100,34,21.3,46199,40757,757,46199,Camberwell Grammar School,CANTERBURY,VIC,3126,Independent,Combined,0,School Single Entity,-37.81589557,145.0672623,0,Major Cities,20059900000,20701114731,207011147,Balwyn,20701,Boroondara,207,Melbourne - Inner East,21110,Boroondara,24006,Kew (Southern Metropolitan),226,Kooyong
Camberwell High School,CANTERBURY,37,81.6,92,30,8.5,45365,48378,8378,45365,Camberwell High School,CANTERBURY,VIC,3126,Government,Secondary,0,School Single Entity,-37.830441,145.073035,0,Major Cities,20066090000,20701114901,207011149,Camberwell,20701,Boroondara,207,Melbourne - Inner East,21110,Boroondara,23706,Hawthorn (Southern Metropolitan),226,Kooyong
Camperdown College,CAMPERDOWN,28,56.3,100,28,0,45319,49779,9779,45319,Camperdown College,CAMPERDOWN,VIC,3260,Government,Combined,0,School Head Campus,-38.239731,143.145435,1,Inner Regional,20136940000,21703147106,217031471,Camperdown,21703,Colac - Corangamite,217,Warrnambool and South West,21830,Corangamite,26808,Polwarth (Western Victoria),238,Wannon
Cann River P-12 College,CANN RIVER,6,100,100,24,0,44670,46298,6298,44670,Cann River P-12 College,CANN RIVER,VIC,3890,Government,Combined,0,School Single Entity,-37.5697,149.153022,3,Remote,20161290000,20502108510,205021085,Orbost,20502,Gippsland - East,205,Latrobe - Gippsland,22110,East Gippsland,23201,Gippsland East (Eastern Victoria),216,Gippsland
Carey Baptist Grammar School,KEW,32,91.8,100,33,11.8,46186,40758,758,46186,Carey Baptist Grammar School,KEW,VIC,3101,Independent,Combined,0,School Head Campus,-37.8158,145.048,0,Major Cities,20074210000,20701152128,207011521,Kew - South,20701,Boroondara,207,Melbourne - Inner East,21110,Boroondara,24006,Kew (Southern Metropolitan),226,Kooyong
Carwatha College P-12,NOBLE PARK NORTH,54,64.9,91,27,0.5,45225,49232,9232,45225,Carwatha College P-12,NOBLE PARK,VIC,3174,Government,Combined,0,School Single Entity,-37.94245361,145.1891273,0,Major Cities,20231520000,21204131617,212041316,Noble Park North,21204,Dandenong,212,Melbourne - South East,22670,Greater Dandenong,25505,Mulgrave (South-Eastern Metropolitan),222,Hotham
Casey Grammar School,CRANBOURNE,31,86.5,99,30,6.2,46326,55837,15837,46326,Casey Grammar School,CRANBOURNE EAST,VIC,3977,Independent,Combined,0,School Single Entity,-38.11029539,145.2928989,0,Major Cities,20631957220,21203155803,212031558,Cranbourne East - South,21203,Casey - South,212,Melbourne - South East,21610,Casey,22005,Cranbourne (South-Eastern Metropolitan),221,Holt
Casterton Secondary College,CASTERTON,14,55.6,100,28,0,45367,49984,9984,45367,Casterton Secondary College,CASTERTON,VIC,3311,Government,Secondary,0,School Single Entity,-37.588796,141.387493,2,Outer Regional,20200170000,21701142010,217011420,Glenelg (Vic.),21701,Glenelg - Southern Grampians,217,Warrnambool and South West,22410,Glenelg,24408,Lowan (Western Victoria),238,Wannon
Castlemaine Secondary College,CASTLEMAINE,114,45.7,93,26,2.1,45561,46182,6182,45561,Castlemaine Secondary College,CASTLEMAINE,VIC,3450,Government,Secondary,0,School Head Campus,-37.077088,144.214549,1,Inner Regional,20504810000,20202102723,202021027,Castlemaine,20202,Heathcote - Castlemaine - Kyneton,202,Bendigo,25430,Mount Alexander,20804,Bendigo West (Northern Victoria),203,Bendigo
Catherine McAuley College,BENDIGO,269,72,98,28,5.3,40412,44768,4768,40412,Catherine McAuley College,BENDIGO,VIC,3550,Catholic,Secondary,0,School Head Campus,-36.753444,144.273362,1,Inner Regional,20204210000,20201101821,202011018,Bendigo,20201,Bendigo,202,Bendigo,22620,Greater Bendigo,20804,Bendigo West (Northern Victoria),203,Bendigo
Catholic College Sale,SALE,194,58.1,100,29,7,45737,41202,1202,45737,Catholic College Sale,SALE,VIC,3850,Catholic,Secondary,0,School Head Campus,-38.108707,147.063779,1,Inner Regional,20585380000,20505110329,205051103,Sale,20505,Wellington,205,Latrobe - Gippsland,26810,Wellington,23301,Gippsland South (Eastern Victoria),216,Gippsland
Catholic College Wodonga,WODONGA,178,63.5,100,28,3.8,46043,42196,2196,46043,Catholic College Wodonga,WODONGA,VIC,3690,Catholic,Secondary,0,School Single Entity,-36.12961895,146.8623901,1,Inner Regional,20631976230,20403107308,204031073,West Wodonga,20403,Wodonga - Alpine,204,Hume,27170,Wodonga,20604,Benambra (Northern Victoria),223,Indi
Chaffey Secondary College,MILDURA,10,I/D,I/D,I/D,I/D,45337,56359,16359,45337,Chaffey Secondary College,MILDURA,VIC,3502,Government,Secondary,0,School Single Entity,-34.19573,142.147985,2,Outer Regional,20413530000,21502146930,215021469,Mildura - North,21502,Mildura,215,North West,24780,Mildura,24904,Mildura (Northern Victoria),230,Mallee
Charlton College,CHARLTON,23,55.6,94,30,1.6,45566,50937,10937,45566,Charlton College,CHARLTON,VIC,3525,Government,Combined,0,School Head Campus,-36.270312,143.359633,2,Outer Regional,20094870000,21503140008,215031400,Buloke,21503,Murray River - Swan Hill,215,North West,21270,Buloke,24904,Mildura (Northern Victoria),230,Mallee
Cheltenham Secondary College,CHELTENHAM,57,73.6,99,28,2.1,45368,49300,9300,45368,Cheltenham Secondary College,CHELTENHAM,VIC,3192,Government,Secondary,0,School Single Entity,-37.953335,145.068585,0,Major Cities,20311070000,20803118865,208031188,Highett (East) - Cheltenham,20803,Kingston,208,Melbourne - Inner South,23430,Kingston (Vic.),20906,Bentleigh (Southern Metropolitan),224,Isaacs
Cire Community School,LILYDALE,160,2.2,16,-,-,51484,,30222,51484,Cire Community School,LILYDALE,VIC,3140,Independent,Secondary,1,School Head Campus,-37.75715697,145.343977,0,Major Cities,20656770000,21105127838,211051278,Lilydale - Coldstream,21105,Yarra Ranges,211,Melbourne - Outer East,27450,Yarra Ranges,22801,Evelyn (Eastern Victoria),206,Casey
Clonard College,HERNE HILL,99,69.3,100,29,5.4,45909,40776,776,45909,Clonard College,HERNE HILL,VIC,3218,Catholic,Secondary,0,School Single Entity,-38.129766,144.33003,0,Major Cities,20631937920,20302104026,203021040,Geelong West - Hamlyn Heights,20302,Geelong,203,Geelong,22750,Greater Geelong,23108,Geelong (Western Victoria),210,Corio
Cobden Technical School,COBDEN,20,20,100,24,0,45327,55443,15443,45327,Cobden Technical School,COBDEN,VIC,3266,Government,Secondary,0,School Single Entity,-38.32403633,143.0636059,1,Inner Regional,20138560000,21703147501,217031475,Corangamite - South,21703,Colac - Corangamite,217,Warrnambool and South West,21830,Corangamite,26808,Polwarth (Western Victoria),238,Wannon
Cobram Anglican Grammar School,COBRAM,47,63.2,100,26,1.1,46356,56687,16687,46356,Cobram Anglican Grammar School,COBRAM,VIC,3644,Independent,Combined,0,School Single Entity,-35.924283,145.660055,1,Inner Regional,20631979190,21602141106,216021411,Cobram,21602,Moira,216,Shepparton,24900,Moira,26404,Ovens Valley (Northern Victoria),236,Nicholls
Cobram Secondary College,COBRAM,94,42.9,98,24,0.9,45369,46237,6237,45369,Cobram Secondary College,COBRAM,VIC,3644,Government,Secondary,0,School Single Entity,-35.913605,145.654121,1,Inner Regional,20421490000,21602141112,216021411,Cobram,21602,Moira,216,Shepparton,24900,Moira,26404,Ovens Valley (Northern Victoria),236,Nicholls
Coburg High School,COBURG,80,82.9,99,30,8,40780,66431,26431,40780,Coburg High School,COBURG,VIC,3058,Government,Secondary,0,School Single Entity,-37.740781,144.972778,0,Major Cities,20469490000,20601149720,206011497,Coburg - East,20601,Brunswick - Coburg,206,Melbourne - Inner,24700,Merri-bek,26603,Pascoe Vale (Northern Metropolitan),239,Wills
Cohuna Secondary College,COHUNA,22,66.7,100,28,4.2,45370,51387,11387,45370,Cohuna Secondary College,COHUNA,VIC,3568,Government,Secondary,0,School Single Entity,-35.813503,144.226425,2,Outer Regional,20181170000,21503140103,215031401,Gannawarra,21503,Murray River - Swan Hill,215,North West,22250,Gannawarra,25604,Murray Plains (Northern Victoria),230,Mallee
Colac Secondary College,COLAC,57,33.3,93,23,0,45593,54855,14855,45593,Colac Secondary College,COLAC,VIC,3250,Government,Secondary,0,School Single Entity,-38.35149548,143.5901021,1,Inner Regional,20133210000,21703147223,217031472,Colac,21703,Colac - Corangamite,217,Warrnambool and South West,21750,Colac Otway,26808,Polwarth (Western Victoria),238,Wannon
Collingwood College,FITZROY NORTH,62,63.8,86,28,4,45296,46259,6259,45296,Collingwood College,COLLINGWOOD,VIC,3066,Government,Combined,0,School Head Campus,-37.802985,144.990497,0,Major Cities,20639680000,20607114106,206071141,Collingwood,20607,Yarra,206,Melbourne - Inner,27350,Yarra,27103,Richmond (Northern Metropolitan),233,Melbourne
Copperfield College,DELAHEY,341,62.6,92,27,2.1,40689,57411,17411,40689,Copperfield College,DELAHEY,VIC,3037,Government,Secondary,0,School Head Campus,-37.719607,144.772454,0,Major Cities,20078760000,21301133102,213011331,Delahey,21301,Brimbank,213,Melbourne - West,21180,Brimbank,28107,Sydenham (Western Metropolitan),218,Gorton
Cornish College,BANGHOLME,23,92.2,100,30,6.8,50513,69729,29729,50513,Cornish College,BANGHOLME,VIC,3175,Independent,Combined,0,School Single Entity,-38.048641,145.150451,0,Major Cities,20631942600,21204156616,212041566,Keysborough - South,21204,Dandenong,212,Melbourne - South East,22670,Greater Dandenong,25205,Mordialloc (South-Eastern Metropolitan),224,Isaacs
Corryong College,CORRYONG,41,27.3,100,31,5.6,45576,51663,11663,45576,Corryong College,CORRYONG,VIC,3707,Government,Combined,0,School Single Entity,-36.192938,147.910757,2,Outer Regional,20568350000,20403107204,204031072,Towong,20403,Wodonga - Alpine,204,Hume,26670,Towong,20604,Benambra (Northern Victoria),223,Indi
Covenant College,BELL POST HILL,30,70.4,100,29,3,46257,42458,2458,46257,Covenant College,BELL POST HILL,VIC,3215,Independent,Combined,0,School Single Entity,-38.0976,144.318015,0,Major Cities,20238220000,20302104736,203021047,North Geelong - Bell Park,20302,Geelong,203,Geelong,22750,Greater Geelong,24208,Lara (Western Victoria),210,Corio
Craigieburn Secondary College,CRAIGIEBURN,159,76,96,21,0.7,45496,46174,6174,45496,Craigieburn Secondary College,CRAIGIEBURN,VIC,3064,Government,Secondary,0,School Single Entity,-37.60861754,144.9355817,0,Major Cities,20296490000,21005144318,210051443,Craigieburn - South,21005,Tullamarine - Broadmeadows,210,Melbourne - North West,23270,Hume,23503,Greenvale (Northern Metropolitan),205,Calwell
Cranbourne Secondary College,CRANBOURNE,255,67,97,24,0.3,45372,52225,12225,45372,Cranbourne Secondary College,CRANBOURNE,VIC,3977,Government,Secondary,0,School Single Entity,-38.108126,145.286641,0,Major Cities,20631932100,21203130017,212031300,Cranbourne,21203,Casey - South,212,Melbourne - South East,21610,Casey,22005,Cranbourne (South-Eastern Metropolitan),221,Holt
Croydon Community School,CROYDON,28,9.1,82,-,-,45374,48446,8446,45374,Croydon Community School,CROYDON,VIC,3136,Government,Secondary,0,School Head Campus,-37.7893876,145.2807261,0,Major Cities,20382810000,21103145110,211031451,Croydon - West,21103,Maroondah,211,Melbourne - Outer East,24410,Maroondah,22102,Croydon (North-Eastern Metropolitan),211,Deakin
Damascus College,MOUNT CLEAR,238,63.9,99,29,3.7,45679,54006,14006,45679,Damascus College,MOUNT CLEAR,VIC,3350,Catholic,Secondary,0,School Single Entity,-37.611456,143.870347,1,Inner Regional,20014110000,20101148302,201011483,Canadian - Mount Clear,20101,Ballarat,201,Ballarat,20570,Ballarat,22608,Eureka (Western Victoria),202,Ballarat
Dandenong High School,DANDENONG,113,72.5,95,25,1.7,45588,46230,6230,45588,Dandenong High School,DANDENONG,VIC,3175,Government,Secondary,0,School Head Campus,-37.979418,145.209011,0,Major Cities,20222560000,21204156304,212041563,Dandenong - North,21204,Dandenong,212,Melbourne - South East,22670,Greater Dandenong,22205,Dandenong (South-Eastern Metropolitan),204,Bruce
Darul Ulum College of Victoria,FAWKNER,65,59.4,100,31,7.3,46345,56008,16008,46345,Darul Ulum College of Victoria,FAWKNER,VIC,3060,Independent,Combined,0,School Head Campus,-37.705621,144.971191,0,Major Cities,20473350000,21003123721,210031237,Fawkner,21003,Moreland - North,210,Melbourne - North West,24700,Merri-bek,21303,Broadmeadows (Northern Metropolitan),239,Wills
Daylesford Secondary College,DAYLESFORD,61,48.6,97,29,3.5,45329,50847,10847,45329,Daylesford Secondary College,DAYLESFORD,VIC,3460,Government,Secondary,0,School Single Entity,-37.33466597,144.151851,1,Inner Regional,20272960000,20102101115,201021011,Daylesford,20102,Creswick - Daylesford - Ballan,201,Ballarat,22910,Hepburn,24504,Macedon (Northern Victoria),202,Ballarat
De La Salle College,MALVERN,68,79.5,100,30,5,45771,55686,15686,45771,De La Salle College,MALVERN,VIC,3144,Catholic,Combined,0,School Head Campus,-37.857677,145.032183,0,Major Cities,20631971980,20804119429,208041194,Malvern - Glen Iris,20804,Stonnington - East,208,Melbourne - Inner South,26350,Stonnington,24606,Malvern (Southern Metropolitan),220,Higgins
Diamond Valley College,DIAMOND CREEK,126,55.7,100,25,0.7,45521,54847,14847,45521,Diamond Valley College,DIAMOND CREEK,VIC,3089,Government,Secondary,0,School Single Entity,-37.672433,145.167704,0,Major Cities,20514850000,20903121506,209031215,Wattle Glen - Diamond Creek,20903,Nillumbik - Kinglake,209,Melbourne - North East,25710,Nillumbik,22402,Eltham (North-Eastern Metropolitan),232,McEwen
Divrei Emineh,ORMOND,16,-,100,-,-,50505,69806,29806,50505,Divrei Emineh,ELSTERNWICK,VIC,3185,Independent,Combined,0,School Single Entity,-37.903565,145.035018,0,Major Cities,20198092000,20802118224,208021182,Ormond - Glen Huntly,20802,Glen Eira,208,Melbourne - Inner South,22310,Glen Eira,20906,Bentleigh (Southern Metropolitan),217,Goldstein
Donald High School,DONALD,23,64.3,100,29,8.3,45378,50889,10889,45378,Donald High School,DONALD,VIC,3480,Government,Secondary,0,School Single Entity,-36.370594,142.977163,2,Outer Regional,20094990000,21503140013,215031400,Buloke,21503,Murray River - Swan Hill,215,North West,21270,Buloke,24904,Mildura (Northern Victoria),230,Mallee
Doncaster Secondary College,DONCASTER,95,74.3,98,32,13,45379,48256,8256,45379,Doncaster Secondary College,DONCASTER,VIC,3108,Government,Secondary,0,School Single Entity,-37.784581,145.138053,0,Major Cities,20369500000,20702115730,207021157,Doncaster,20702,Manningham - West,207,Melbourne - Inner East,24210,Manningham,21502,Bulleen (North-Eastern Metropolitan),234,Menzies
Donvale Christian College,DONVALE,69,86.2,99,33,10.7,46235,42403,2403,46235,Donvale Christian College,DONVALE,VIC,3111,Independent,Combined,0,School Head Campus,-37.774028,145.193451,0,Major Cities,20357420000,21102126122,211021261,Donvale - Park Orchards,21102,Manningham - East,211,Melbourne - Outer East,24210,Manningham,28402,Warrandyte (North-Eastern Metropolitan),234,Menzies
Dromana Secondary College,DROMANA,272,58.1,100,32,8.7,45330,56380,16380,45330,Dromana Secondary College,DROMANA,VIC,3936,Government,Secondary,0,School Single Entity,-38.342636,145.013582,0,Major Cities,20485210000,21402137711,214021377,Dromana,21402,Mornington Peninsula,214,Mornington Peninsula,25340,Mornington Peninsula,26001,Nepean (Eastern Victoria),213,Flinders
Drouin Secondary College,DROUIN,174,42.7,98,25,1.1,45380,51865,11865,45380,Drouin Secondary College,DROUIN,VIC,3818,Government,Secondary,0,School Head Campus,-38.144659,145.850978,1,Inner Regional,20039530000,20501107637,205011076,Drouin,20501,Baw Baw,205,Latrobe - Gippsland,20830,Baw Baw,25701,Narracan (Eastern Victoria),235,Monash
Eaglehawk Secondary College,EAGLEHAWK,28,-,-,-,-,45381,46170,6170,45381,Eaglehawk Secondary College,EAGLEHAWK,VIC,3556,Government,Secondary,0,School Single Entity,-36.720264,144.262694,1,Inner Regional,20207120000,20201101905,202011019,California Gully - Eaglehawk,20201,Bendigo,202,Bendigo,22620,Greater Bendigo,20704,Bendigo East (Northern Victoria),203,Bendigo
East Loddon P-12 College,DINGEE,21,64.7,88,28,1.7,45299,51393,11393,45299,East Loddon P-12 College,DINGEE,VIC,3571,Government,Combined,0,School Single Entity,-36.372222,144.141446,1,Inner Regional,20351460000,20203103312,202031033,Loddon,20203,Loddon - Elmore,202,Bendigo,23940,Loddon,20704,Bendigo East (Northern Victoria),230,Mallee
East Preston Islamic College,PRESTON,9,33.3,83,21,0,46349,56149,16149,46349,East Preston Islamic College,PRESTON,VIC,3072,Independent,Combined,0,School Single Entity,-37.73395221,145.0343898,0,Major Cities,20154500000,20902142838,209021428,Preston - East,20902,Darebin - North,209,Melbourne - North East,21890,Darebin,27003,Preston (Northern Metropolitan),208,Cooper
Echuca College,ECHUCA,166,51.4,99,24,0.7,40434,46325,6325,40434,Echuca College,ECHUCA,VIC,3564,Government,Secondary,0,School Single Entity,-36.132394,144.732423,1,Inner Regional,20096911000,21601140615,216011406,Echuca,21601,Campaspe,216,Shepparton,21370,Campaspe,25604,Murray Plains (Northern Victoria),236,Nicholls
Edenhope College,EDENHOPE,11,33.3,100,25,0,45222,50018,10018,45222,Edenhope College,EDENHOPE,VIC,3318,Government,Combined,0,School Single Entity,-37.03342876,141.2985627,2,Outer Regional,20586270000,21501139308,215011393,West Wimmera,21501,Grampians,215,North West,26890,West Wimmera,24408,Lowan (Western Victoria),230,Mallee
Edgars Creek Secondary College,WOLLERT,123,61.3,88,26,1,52591,85311,85310,52591,Edgars Creek Secondary College,WOLLERT,VIC,3750,Government,Secondary,0,School Single Entity,-37.616208,145.004876,0,Major Cities,21333880000,20904143745,209041437,Wollert,20904,Whittlesea - Wallan,209,Melbourne - North East,27070,Whittlesea,28303,Thomastown (Northern Metropolitan),237,Scullin
Edinburgh College,LILYDALE,40,68.2,100,28,1,46222,42222,2222,46222,Edinburgh College,LILYDALE,VIC,3140,Independent,Combined,0,School Head Campus,-37.78495789,145.3518829,0,Major Cities,20656020000,21105127817,211051278,Lilydale - Coldstream,21105,Yarra Ranges,211,Melbourne - Outer East,27450,Yarra Ranges,22801,Evelyn (Eastern Victoria),206,Casey
Elevation Secondary College,CRAIGIEBURN,100,-,-,30,9.4,52779,86870,86869,52779,Elevation Secondary College,CRAIGIEBURN,VIC,3064,Government,Secondary,0,School Single Entity,-37.598,144.8889,0,Major Cities,21321750000,21005144345,210051443,Craigieburn - South,21005,Tullamarine - Broadmeadows,210,Melbourne - North West,23270,Hume,23903,Kalkallo (Northern Metropolitan),205,Calwell
Elisabeth Murdoch College,LANGWARRIN,504,39.6,100,31,10.8,45506,52125,12125,45506,Elisabeth Murdoch College,LANGWARRIN,VIC,3910,Government,Secondary,0,School Single Entity,-38.159291,145.19018,0,Major Cities,20165920000,21401137448,214011374,Langwarrin,21401,Frankston,214,Mornington Peninsula,22170,Frankston,23601,Hastings (Eastern Victoria),212,Dunkley
Eltham College,RESEARCH,91,92.1,100,31,9,46232,42179,2179,46232,Eltham College,RESEARCH,VIC,3095,Independent,Combined,0,School Head Campus,-37.70044311,145.192232,0,Major Cities,20513950000,20903121415,209031214,Research - North Warrandyte,20903,Nillumbik - Kinglake,209,Melbourne - North East,25710,Nillumbik,22402,Eltham (North-Eastern Metropolitan),225,Jagajaga
Eltham High School,ELTHAM,99,66,99,29,5.3,45382,48232,8232,45382,Eltham High School,ELTHAM,VIC,3095,Government,Secondary,0,School Single Entity,-37.72464493,145.1424858,0,Major Cities,20511890000,20903120922,209031209,Eltham,20903,Nillumbik - Kinglake,209,Melbourne - North East,25710,Nillumbik,22402,Eltham (North-Eastern Metropolitan),225,Jagajaga
Elwood College,ELWOOD,35,70.1,99,31,9.3,45383,55445,15445,45383,Elwood College,ELWOOD,VIC,3184,Government,Secondary,0,School Single Entity,-37.881989,144.984486,0,Major Cities,20521460000,20605112934,206051129,Elwood,20605,Port Phillip,206,Melbourne - Inner,25900,Port Phillip,21206,Brighton (Southern Metropolitan),229,Macnamara
Emerald Secondary College,EMERALD,64,51.6,100,28,1.6,45497,54722,14722,45497,Emerald Secondary College,EMERALD,VIC,3782,Government,Secondary,0,School Single Entity,-37.92427055,145.4587437,0,Major Cities,20100760000,21201128904,212011289,Emerald - Cockatoo,21201,Cardinia,212,Melbourne - South East,21450,Cardinia,25101,Monbulk (Eastern Victoria),227,La Trobe
Emmaus College,VERMONT SOUTH,226,73.1,100,31,9.8,45936,40764,764,45936,Emmaus College,VERMONT SOUTH,VIC,3133,Catholic,Secondary,0,School Head Campus,-37.84799085,145.1744478,0,Major Cities,20599060000,21104127306,211041273,Vermont South,21104,Whitehorse - East,211,Melbourne - Outer East,26980,Whitehorse,23402,Glen Waverley (North-Eastern Metropolitan),211,Deakin
Epping Secondary College,EPPING,184,61.6,98,28,5.2,45384,46254,6254,45384,Epping Secondary College,EPPING,VIC,3076,Government,Secondary,0,School Single Entity,-37.64428686,145.0328343,0,Major Cities,20619010000,20904143117,209041431,Epping - East,20904,Whittlesea - Wallan,209,Melbourne - North East,27070,Whittlesea,25002,Mill Park (North-Eastern Metropolitan),237,Scullin
Essendon Keilor College,ESSENDON,96,64.8,97,26,2.3,45543,56383,16383,45543,Essendon Keilor College,KEILOR EAST,VIC,3033,Government,Secondary,0,School Head Campus,-37.744074,144.868237,0,Major Cities,20455080000,21001153404,210011534,Keilor East,21001,Keilor,210,Melbourne - North West,25060,Moonee Valley,26107,Niddrie (Western Metropolitan),231,Maribyrnong
Euroa Secondary College,EUROA,106,38.5,90,26,2.8,45385,51527,11527,45385,Euroa Secondary College,EUROA,VIC,3666,Government,Secondary,0,School Single Entity,-36.758203,145.5648,1,Inner Regional,20557790000,20401105511,204011055,Euroa,20401,Upper Goulburn Valley,204,Hume,26430,Strathbogie,22704,Euroa (Northern Victoria),223,Indi
Fairhills High School,KNOXFIELD,63,55.6,93,26,0,45386,49021,9021,45386,Fairhills High School,KNOXFIELD,VIC,3180,Government,Secondary,0,School Single Entity,-37.87289402,145.2575567,0,Major Cities,20337440000,21101144729,211011447,Ferntree Gully - North,21101,Knox,211,Melbourne - Outer East,23670,Knox,20402,Bayswater (North-Eastern Metropolitan),201,Aston
Firbank Grammar School,BRIGHTON,17,100,100,34,19.2,46164,44217,4217,46164,Firbank Grammar School,BRIGHTON,VIC,3186,Independent,Combined,0,School Head Campus,-37.906118,144.996936,0,Major Cities,20043330000,20801116950,208011169,Brighton (Vic.),20801,Bayside,208,Melbourne - Inner South,20910,Bayside (Vic.),21206,Brighton (Southern Metropolitan),217,Goldstein
Fitzroy High School,FITZROY NORTH,58,73.7,93,28,3.7,45517,62781,22781,45517,Fitzroy High School,FITZROY NORTH,VIC,3068,Government,Secondary,0,School Single Entity,-37.784911,144.987476,0,Major Cities,20637940000,20607114326,206071143,Fitzroy North,20607,Yarra,206,Melbourne - Inner,27350,Yarra,21403,Brunswick (Northern Metropolitan),233,Melbourne
Footscray High School,FOOTSCRAY,127,70.3,99,29,4.2,52813,86859,86857,52813,Footscray High School,FOOTSCRAY,VIC,3011,Government,Secondary,0,School Head Campus,-37.7911,144.894,0,Major Cities,20371480000,21303134829,213031348,Footscray,21303,Maribyrnong,213,Melbourne - West,24330,Maribyrnong,22907,Footscray (Western Metropolitan),214,Fraser
Forest Hill College,BURWOOD EAST,83,58.1,94,29,2.1,45508,54850,14850,45508,Forest Hill College,BURWOOD EAST,VIC,3151,Government,Secondary,0,School Head Campus,-37.847965,145.163859,0,Major Cities,20601200000,20703116622,207031166,Burwood East,20703,Whitehorse - West,207,Melbourne - Inner East,26980,Whitehorse,23402,Glen Waverley (North-Eastern Metropolitan),207,Chisholm
Foster Secondary College,FOSTER,59,45.2,90,30,3,45389,54792,14792,45389,Foster Secondary College,FOSTER,VIC,3960,Government,Secondary,0,School Single Entity,-38.651737,146.197413,1,Inner Regional,20631989840,20503108706,205031087,Foster,20503,Gippsland - South West,205,Latrobe - Gippsland,26170,South Gippsland,23301,Gippsland South (Eastern Victoria),235,Monash
Frankston High School,FRANKSTON,212,69.2,99,31,9.6,45390,68484,28484,45390,Frankston High School,FRANKSTON,VIC,3199,Government,Secondary,0,School Head Campus,-38.16056162,145.1284347,0,Major Cities,20171500000,21401137115,214011371,Frankston,21401,Frankston,214,Mornington Peninsula,22170,Frankston,23005,Frankston (South-Eastern Metropolitan),212,Dunkley
Geelong Baptist College,LOVELY BANKS,19,43.5,87,24,2.5,46370,57709,17709,46370,Geelong Baptist College,LOVELY BANKS,VIC,3213,Independent,Combined,0,School Single Entity,-38.068112,144.328265,0,Major Cities,20243020000,20302148604,203021486,Corio - Lovely Banks,20302,Geelong,203,Geelong,22750,Greater Geelong,24208,Lara (Western Victoria),210,Corio
Geelong High School,EAST GEELONG,109,43.6,99,27,5.1,45391,49570,9570,45391,Geelong High School,EAST GEELONG,VIC,3219,Government,Secondary,0,School Single Entity,-38.153026,144.373726,0,Major Cities,20245720000,20302103936,203021039,Geelong,20302,Geelong,203,Geelong,22750,Greater Geelong,23108,Geelong (Western Victoria),210,Corio
Gippsland Grammar,SALE,69,77.9,99,31,9.8,46196,56353,16353,46196,Gippsland Grammar,SALE,VIC,3850,Independent,Combined,0,School Head Campus,-38.093651,147.064627,1,Inner Regional,20584750000,20505110306,205051103,Sale,20505,Wellington,205,Latrobe - Gippsland,26810,Wellington,23301,Gippsland South (Eastern Victoria),216,Gippsland
Girton Grammar School,BENDIGO,16,80.4,100,31,9.4,46325,54225,14225,46325,Girton Grammar School,BENDIGO,VIC,3550,Independent,Combined,0,School Head Campus,-36.76260022,144.2727791,1,Inner Regional,20204031000,20201101814,202011018,Bendigo,20201,Bendigo,202,Bendigo,22620,Greater Bendigo,20804,Bendigo West (Northern Victoria),203,Bendigo
Gisborne Secondary College,GISBORNE,248,49.4,100,27,0.8,45393,56388,16388,45393,Gisborne Secondary College,GISBORNE,VIC,3437,Government,Secondary,0,School Single Entity,-37.49811364,144.5847741,1,Inner Regional,20355070000,21002123221,210021232,Gisborne,21002,Macedon Ranges,210,Melbourne - North West,24130,Macedon Ranges,24504,Macedon (Northern Victoria),232,McEwen
Glen Eira College,CAULFIELD EAST,63,78.7,98,31,6.5,45495,56059,16059,45495,Glen Eira College,CAULFIELD EAST,VIC,3145,Government,Secondary,0,School Single Entity,-37.8857,145.038006,0,Major Cities,20189740000,20802117703,208021177,Caulfield - North,20802,Glen Eira,208,Melbourne - Inner South,22310,Glen Eira,21806,Caulfield (Southern Metropolitan),229,Macnamara
Gleneagles Secondary College,ENDEAVOUR HILLS,151,67.7,99,29,3.2,45599,55647,15647,45599,Gleneagles Secondary College,ENDEAVOUR HILLS,VIC,3802,Government,Secondary,0,School Single Entity,-37.97435311,145.2762807,0,Major Cities,20124770000,21202145312,212021453,Endeavour Hills - North,21202,Casey - North,212,Melbourne - South East,21610,Casey,25805,Narre Warren North (South-Eastern Metropolitan),204,Bruce
Glenroy Secondary College,GLENROY,45,51,100,19,0,45625,68781,28781,45625,Glenroy Secondary College,GLENROY,VIC,3046,Government,Secondary,0,School Single Entity,-37.705324,144.927565,0,Major Cities,20631913690,21003153518,210031535,Glenroy - East,21003,Moreland - North,210,Melbourne - North West,24700,Merri-bek,21303,Broadmeadows (Northern Metropolitan),239,Wills
Glenroy Private,GLENROY,-,100,100,23,0,50503,69796,29796,50503,Glenroy Private,GLENROY,VIC,3046,Independent,Combined,0,School Single Entity,-37.697077,144.928185,0,Major Cities,20472830000,21003153509,210031535,Glenroy - East,21003,Moreland - North,210,Melbourne - North West,24700,Merri-bek,21303,Broadmeadows (Northern Metropolitan),239,Wills
Good News Lutheran College,TARNEIT,23,98.7,99,31,7.4,46334,55363,15363,46334,Good News Lutheran College,TARNEIT,VIC,3029,Independent,Combined,0,School Single Entity,-37.855204,144.665994,0,Major Cities,20631946470,21305158520,213051585,Tarneit - South,21305,Wyndham,213,Melbourne - West,27260,Wyndham,28207,Tarneit (Western Metropolitan),228,Lalor
Grace Christian College Wodonga,LENEVA,15,26.7,100,-,-,46302,57756,17756,46302,Grace Christian College Wodonga,LENEVA,VIC,3691,Independent,Combined,0,School Single Entity,-36.157173,146.887345,1,Inner Regional,20631902180,20403149119,204031491,Baranduda - Leneva,20403,Wodonga - Alpine,204,Hume,27170,Wodonga,20604,Benambra (Northern Victoria),223,Indi
Grovedale College,GROVEDALE,105,48.9,98,25,1.1,45331,55830,15830,45331,Grovedale College,GROVEDALE,VIC,3216,Government,Secondary,0,School Single Entity,-38.2110078,144.3271514,0,Major Cities,20255240000,20302148750,203021487,Grovedale - Mount Duneed,20302,Geelong,203,Geelong,22750,Greater Geelong,27708,South Barwon (Western Victoria),209,Corangamite
Haileybury Girls College,KEYSBOROUGH,29,97.7,100,36,29.9,52426,,797,46189,Haileybury Girls College,KEYSBOROUGH,VIC,3173,Independent,Combined,0,School Sub-Campus,-37.995299,145.144153,0,Major Cities,20631926190,21204156613,212041566,Keysborough - South,21204,Dandenong,212,Melbourne - South East,22670,Greater Dandenong,25205,Mordialloc (South-Eastern Metropolitan),224,Isaacs
Hazel Glen College,DOREEN,286,58.2,99,26,2.7,50683,70187,30187,50683,Hazel Glen College,DOREEN,VIC,3754,Government,Combined,0,School Single Entity,-37.59822111,145.1233997,0,Major Cities,20631972120,20904152717,209041527,Doreen - North,20904,Whittlesea - Wallan,209,Melbourne - North East,27070,Whittlesea,28804,Yan Yean (Northern Victoria),232,McEwen
Healesville High School,HEALESVILLE,47,61.8,88,27,1.6,45397,46282,6282,45397,Healesville High School,HEALESVILLE,VIC,3777,Government,Secondary,0,School Single Entity,-37.64356325,145.5319733,1,Inner Regional,20660180000,21105127618,211051276,Healesville - Yarra Glen,21105,Yarra Ranges,211,Melbourne - Outer East,27450,Yarra Ranges,22304,Eildon (Northern Victoria),206,Casey
Heathdale Christian College,WERRIBEE,125,96.2,100,30,5.6,46275,44028,4028,46275,Heathdale Christian College,WERRIBEE,VIC,3030,Independent,Combined,0,School Head Campus,-37.881318,144.681332,0,Major Cities,20625920000,21305146727,213051467,Werribee - East,21305,Wyndham,213,Melbourne - West,27260,Wyndham,28607,Werribee (Western Metropolitan),228,Lalor
Heathmont College,HEATHMONT,84,49.1,98,25,0.7,45555,48441,8441,45555,Heathmont College,HEATHMONT,VIC,3135,Government,Secondary,0,School Single Entity,-37.83842619,145.2321036,0,Major Cities,20389100000,21103126731,211031267,Ringwood East,21103,Maroondah,211,Melbourne - Outer East,24410,Maroondah,27202,Ringwood (North-Eastern Metropolitan),211,Deakin
Heritage College,OFFICER,14,80,96,27,0.9,46212,56582,16582,46212,Heritage College,NARRE WARREN SOUTH,VIC,3805,Independent,Combined,0,School Head Campus,-38.050215,145.316519,0,Major Cities,20110870000,21203145722,212031457,Narre Warren South - East,21203,Casey - South,212,Melbourne - South East,21610,Casey,25905,Narre Warren South (South-Eastern Metropolitan),204,Bruce
Hester Hornbrook Academy,SOUTH MELBOURNE,244,13.5,30,-,-,52517,86640,80108,52517,Hester Hornbrook Academy,MELBOURNE,VIC,3000,Independent,Secondary,1,School Head Campus,-37.82918,144.96312,0,Major Cities,20532081000,20605151219,206051512,South Melbourne,20605,Port Phillip,206,Melbourne - Inner,25900,Port Phillip,20106,Albert Park (Southern Metropolitan),229,Macnamara
Highvale Secondary College,GLEN WAVERLEY,38,86.2,98,29,7.3,45399,54999,14999,45399,Highvale Secondary College,GLEN WAVERLEY,VIC,3150,Government,Secondary,0,School Single Entity,-37.86624,145.176723,0,Major Cities,20431940000,21205132131,212051321,Glen Waverley - East,21205,Monash,212,Melbourne - South East,24970,Monash,23402,Glen Waverley (North-Eastern Metropolitan),207,Chisholm
Hillcrest Christian College,CLYDE NORTH,53,85.9,100,29,3.4,46276,57257,17257,46276,Hillcrest Christian College,CLYDE NORTH,VIC,3978,Independent,Combined,0,School Head Campus,-38.084681,145.363801,0,Major Cities,21332050000,21203155509,212031555,Clyde North - North,21203,Casey - South,212,Melbourne - South East,21610,Casey,21005,Berwick (South-Eastern Metropolitan),227,La Trobe
Holmes Grammar School,MELBOURNE,10,39.1,96,28,0,40736,63406,23406,40736,Holmes Grammar School,MELBOURNE,VIC,3000,Independent,Secondary,0,School Single Entity,-37.810302,144.972271,0,Major Cities,20394030000,20604150320,206041503,Melbourne CBD - East,20604,Melbourne City,206,Melbourne - Inner,24600,Melbourne,24703,Melbourne (Northern Metropolitan),233,Melbourne
Holy Trinity Lutheran College,HORSHAM,21,64.3,100,30,8.8,46242,55316,15316,46242,Holy Trinity Lutheran College,HORSHAM,VIC,3400,Independent,Combined,0,School Single Entity,-36.708181,142.217749,2,Outer Regional,20631905130,21501138807,215011388,Horsham,21501,Grampians,215,North West,23190,Horsham,24408,Lowan (Western Victoria),230,Mallee
Hopetoun P-12 College,HOPETOUN,10,-,100,27,0,45400,69633,29633,45400,Hopetoun P-12 College,HOPETOUN,VIC,3396,Government,Combined,0,School Single Entity,-35.73486974,142.3660296,3,Remote,20662290000,21501139421,215011394,Yarriambiack,21501,Grampians,215,North West,27630,Yarriambiack,24904,Mildura (Northern Victoria),230,Mallee
Horsham College,HORSHAM,178,38.3,93,29,5.2,45556,50656,10656,45556,Horsham College,HORSHAM,VIC,3402,Government,Secondary,0,School Head Campus,-36.707706,142.187075,2,Outer Regional,20287610000,21501138815,215011388,Horsham,21501,Grampians,215,North West,23190,Horsham,24408,Lowan (Western Victoria),230,Mallee
Hume Anglican Grammar,MICKLEHAM,6,91.6,100,30,9.4,46385,68136,28136,46385,Hume Anglican Grammar,MICKLEHAM,VIC,3064,Independent,Combined,0,School Head Campus,-37.568405,144.931491,0,Major Cities,20300000000,21005144505,210051445,Mickleham - Yuroke,21005,Tullamarine - Broadmeadows,210,Melbourne - North West,23270,Hume,23903,Kalkallo (Northern Metropolitan),205,Calwell
Huntingtower School,MOUNT WAVERLEY,34,98.9,100,37,31.7,46201,40815,815,46201,Huntingtower School,MOUNT WAVERLEY,VIC,3149,Independent,Combined,0,School Single Entity,-37.876741,145.136288,0,Major Cities,20442940000,21205132437,212051324,Mount Waverley - South,21205,Monash,212,Melbourne - South East,24970,Monash,20206,Ashwood (Southern Metropolitan),207,Chisholm
Ignatius Learning Centre,RICHMOND,13,-,-,-,-,53015,87029,87028,53015,Ignatius Learning Centre,RICHMOND,VIC,3121,Catholic,Secondary,1,School Single Entity,-37.82215686,144.9981578,0,Major Cities,20643350000,20607151728,206071517,Richmond (South) - Cremorne,20607,Yarra,206,Melbourne - Inner,27350,Yarra,27103,Richmond (Northern Metropolitan),233,Melbourne
Indie School Wodonga,WODONGA,1442,2.1,80,I/D,I/D,43720,65136,25136,43720,Indie School Wodonga,WODONGA,VIC,3690,Independent,Secondary,1,School Head Campus,-36.118028,146.889403,1,Inner Regional,20619990000,20403149219,204031492,Wodonga,20403,Wodonga - Alpine,204,Hume,27170,Wodonga,20604,Benambra (Northern Victoria),223,Indi
Iona College Geelong,CHARLEMONT,75,-,-,33,6.1,52858,85222,85221,52858,Iona College Geelong,CHARLEMONT,VIC,3217,Catholic,Secondary,0,School Single Entity,-38.2205,144.3548,0,Major Cities,21345970000,20302148524,203021485,Charlemont,20302,Geelong,203,Geelong,22750,Greater Geelong,27708,South Barwon (Western Victoria),209,Corangamite
Irymple Secondary College,IRYMPLE,33,-,-,-,-,45332,54889,14889,45332,Irymple Secondary College,IRYMPLE,VIC,3498,Government,Secondary,0,School Single Entity,-34.23232674,142.1647031,2,Outer Regional,20414720000,21502139515,215021395,Irymple,21502,Mildura,215,North West,24780,Mildura,24904,Mildura (Northern Victoria),230,Mallee
Ivanhoe Girls' Grammar School,IVANHOE,56,99.2,100,35,21.2,46185,40821,821,46185,Ivanhoe Girls' Grammar School,IVANHOE,VIC,3079,Independent,Combined,0,School Single Entity,-37.76652207,145.0474774,0,Major Cities,20021430000,20901120030,209011200,Ivanhoe,20901,Banyule,209,Melbourne - North East,20660,Banyule,23802,Ivanhoe (North-Eastern Metropolitan),225,Jagajaga
John Monash Science School,CLAYTON,12,98.7,100,36,22.5,40828,68200,28200,40828,John Monash Science School,CLAYTON,VIC,3168,Government,Secondary,0,School Single Entity,-37.91419502,145.1287826,0,Major Cities,20426000000,21205156702,212051567,Clayton (North) - Notting Hill,21205,Monash,212,Melbourne - South East,24970,Monash,26306,Oakleigh (Southern Metropolitan),207,Chisholm
John Paul College,FRANKSTON,116,66.9,96,28,4.6,45994,40846,846,45994,John Paul College,FRANKSTON,VIC,3199,Catholic,Secondary,0,School Single Entity,-38.134567,145.139395,0,Major Cities,20176440000,21401137214,214011372,Frankston North,21401,Frankston,214,Mornington Peninsula,22170,Frankston,23005,Frankston (South-Eastern Metropolitan),212,Dunkley
Kambrya College,BERWICK,291,65.6,99,31,5.6,45480,57171,17171,45480,Kambrya College,BERWICK,VIC,3806,Government,Secondary,0,School Single Entity,-38.05368819,145.34741,0,Major Cities,20115120000,21202155313,212021553,Berwick - South East,21202,Casey - North,212,Melbourne - South East,21610,Casey,21005,Berwick (South-Eastern Metropolitan),227,La Trobe
Kerang Christian College,KERANG,-,60,100,29,15.9,46289,44208,4208,46289,Kerang Christian College,KERANG,VIC,3579,Independent,Combined,0,School Single Entity,-35.730422,143.913416,2,Outer Regional,20180850000,21503140208,215031402,Kerang,21503,Murray River - Swan Hill,215,North West,22250,Gannawarra,25604,Murray Plains (Northern Victoria),230,Mallee
Kerang Technical High School,KERANG,45,41.2,100,26,2.6,45403,51401,11401,45403,Kerang Technical High School,KERANG,VIC,3579,Government,Secondary,0,School Single Entity,-35.725651,143.913802,2,Outer Regional,20181140000,21503140207,215031402,Kerang,21503,Murray River - Swan Hill,215,North West,22250,Gannawarra,25604,Murray Plains (Northern Victoria),230,Mallee
Kew High School,KEW EAST,81,94.9,100,30,7.1,45405,46241,6241,45405,Kew High School,KEW EAST,VIC,3102,Government,Secondary,0,School Single Entity,-37.794722,145.061556,0,Major Cities,20072740000,20701115411,207011154,Kew East,20701,Boroondara,207,Melbourne - Inner East,21110,Boroondara,24006,Kew (Southern Metropolitan),226,Kooyong
Kilbreda College,MENTONE,88,82.4,100,32,10.3,45712,40822,822,45712,Kilbreda College,MENTONE,VIC,3194,Catholic,Secondary,0,School Single Entity,-37.984153,145.065712,0,Major Cities,20631928040,20803119023,208031190,Mentone,20803,Kingston,208,Melbourne - Inner South,23430,Kingston (Vic.),27506,Sandringham (Southern Metropolitan),224,Isaacs
Killester College,SPRINGVALE,67,96,100,30,5.3,45906,40826,826,45906,Killester College,SPRINGVALE,VIC,3171,Catholic,Secondary,0,School Single Entity,-37.959071,145.152017,0,Major Cities,20229760000,21204131701,212041317,Springvale,21204,Dandenong,212,Melbourne - South East,22670,Greater Dandenong,25505,Mulgrave (South-Eastern Metropolitan),222,Hotham
Kilvington Grammar School,ORMOND,9,98.8,100,33,18.3,46188,40828,828,46188,Kilvington Grammar School,ORMOND,VIC,3204,Independent,Combined,0,School Single Entity,-37.899519,145.041216,0,Major Cities,20182710000,20802118216,208021182,Ormond - Glen Huntly,20802,Glen Eira,208,Melbourne - Inner South,22310,Glen Eira,21806,Caulfield (Southern Metropolitan),217,Goldstein
Kingswood College,BOX HILL,62,92.2,100,32,11.8,46202,40829,829,46202,Kingswood College,BOX HILL,VIC,3128,Independent,Combined,0,School Single Entity,-37.832777,145.118628,0,Major Cities,20590060000,20703116323,207031163,Box Hill,20703,Whitehorse - West,207,Melbourne - Inner East,26980,Whitehorse,21102,Box Hill (North-Eastern Metropolitan),207,Chisholm
Kolbe Catholic College,GREENVALE,312,80.5,100,27,4.8,46123,67935,27935,46123,Kolbe Catholic College,GREENVALE,VIC,3059,Catholic,Secondary,0,School Single Entity,-37.61565904,144.9098864,0,Major Cities,21320710000,21005124650,210051246,Greenvale - Bulla,21005,Tullamarine - Broadmeadows,210,Melbourne - North West,23270,Hume,23503,Greenvale (Northern Metropolitan),205,Calwell
Koonung Secondary College,MONT ALBERT NORTH,69,84.2,97,32,9.8,45406,46193,6193,45406,Koonung Secondary College,MONT ALBERT NORTH,VIC,3129,Government,Secondary,0,School Single Entity,-37.80273503,145.1152839,0,Major Cities,20591880000,20703116403,207031164,Box Hill North,20703,Whitehorse - West,207,Melbourne - Inner East,26980,Whitehorse,21102,Box Hill (North-Eastern Metropolitan),226,Kooyong
Korowa Anglican Girls' School,GLEN IRIS,18,100,100,35,21.2,46136,40830,830,46136,Korowa Anglican Girls' School,GLEN IRIS,VIC,3146,Independent,Combined,0,School Single Entity,-37.861454,145.054637,0,Major Cities,20631991500,20804119444,208041194,Malvern - Glen Iris,20804,Stonnington - East,208,Melbourne - Inner South,26350,Stonnington,24606,Malvern (Southern Metropolitan),220,Higgins
Kurnai College,CHURCHILL,222,40.4,98,24,0.8,45503,65832,25832,45503,Kurnai College,MORWELL,VIC,3840,Government,Secondary,0,School Head Campus,-38.228791,146.432788,1,Inner Regional,20631928740,20504109602,205041096,Morwell,20504,Latrobe Valley,205,Latrobe - Gippsland,23810,Latrobe (Vic.),25401,Morwell (Eastern Victoria),216,Gippsland
Kurunjang Secondary College,MELTON,94,60.6,98,24,2.3,45504,56397,16397,45504,Kurunjang Secondary College,MELTON,VIC,3337,Government,Secondary,0,School Single Entity,-37.67318002,144.5858272,0,Major Cities,20407810000,21304157625,213041576,Kurunjang - Toolern Vale,21304,Melton - Bacchus Marsh,213,Melbourne - West,24650,Melton,24808,Melton (Western Victoria),219,Hawke
Kyabram P-12 College,KYABRAM,93,35.7,98,23,0,45409,51446,11446,45409,Kyabram P-12 College,KYABRAM,VIC,3619,Government,Combined,0,School Head Campus,-36.317476,145.056207,1,Inner Regional,20097280000,21601140730,216011407,Kyabram,21601,Campaspe,216,Shepparton,21370,Campaspe,25604,Murray Plains (Northern Victoria),236,Nicholls
Lakeview Senior College,CAROLINE SPRINGS,205,68,97,27,2.3,50199,69644,29644,50199,Lakeview Senior College,CAROLINE SPRINGS,VIC,3023,Government,Secondary,0,School Single Entity,-37.73116305,144.7401359,0,Major Cities,20631951190,21304146338,213041463,Caroline Springs,21304,Melton - Bacchus Marsh,213,Melbourne - West,24650,Melton,24107,Kororoit (Western Metropolitan),218,Gorton
Lalor Secondary College,LALOR,107,68.6,98,26,2.3,45413,46279,6279,45413,Lalor Secondary College,LALOR,VIC,3075,Government,Secondary,0,School Single Entity,-37.671732,145.030585,0,Major Cities,20616500000,20904152901,209041529,Lalor - East,20904,Whittlesea - Wallan,209,Melbourne - North East,27070,Whittlesea,28303,Thomastown (Northern Metropolitan),237,Scullin
Lara Secondary College,LARA,99,25,92,25,1.5,45574,57511,17511,45574,Lara Secondary College,LARA,VIC,3212,Government,Secondary,0,School Single Entity,-38.01839851,144.4123342,0,Major Cities,20243110000,20302104334,203021043,Lara,20302,Geelong,203,Geelong,22750,Greater Geelong,24208,Lara (Western Victoria),210,Corio
Lavalla Catholic College,TRARALGON,117,70.4,100,30,4.4,40708,57728,17728,40708,Lavalla Catholic College,TRARALGON,VIC,3844,Catholic,Secondary,0,School Head Campus,-38.20088627,146.5141957,1,Inner Regional,20348640000,20504149423,205041494,Traralgon - West,20504,Latrobe Valley,205,Latrobe - Gippsland,23810,Latrobe (Vic.),25401,Morwell (Eastern Victoria),216,Gippsland
Lavers Hill K-12 College,LAVERS HILL,13,-,-,I/D,I/D,45304,49613,9613,45304,Lavers Hill K-12 College,LAVERS HILL,VIC,3238,Government,Combined,0,School Head Campus,-38.681844,143.383051,2,Outer Regional,20136160000,21703147604,217031476,Otway,21703,Colac - Corangamite,217,Warrnambool and South West,21750,Colac Otway,26808,Polwarth (Western Victoria),238,Wannon
Laverton P-12 College,LAVERTON,49,84.2,100,24,3.7,45590,47643,7643,45590,Laverton P-12 College,LAVERTON,VIC,3028,Government,Combined,0,School Single Entity,-37.85617409,144.7726329,0,Major Cities,20277350000,21305136310,213051363,Laverton,21305,Wyndham,213,Melbourne - West,23110,Hobsons Bay,24307,Laverton (Western Metropolitan),215,Gellibrand
Leibler Yavneh College,ELSTERNWICK,97,96.2,100,35,23.6,46218,41300,1300,46218,Leibler Yavneh College,ELSTERNWICK,VIC,3185,Independent,Combined,0,School Single Entity,-37.892871,145.006626,0,Major Cities,20182660000,20802117914,208021179,Elsternwick,20802,Glen Eira,208,Melbourne - Inner South,22310,Glen Eira,21806,Caulfield (Southern Metropolitan),217,Goldstein
Leongatha Secondary College,LEONGATHA,109,59.6,99,29,1,45520,52167,12167,45520,Leongatha Secondary College,LEONGATHA,VIC,3953,Government,Secondary,0,School Single Entity,-38.47868659,145.9612411,1,Inner Regional,20537330000,20503109011,205031090,Leongatha,20503,Gippsland - South West,205,Latrobe - Gippsland,26170,South Gippsland,23301,Gippsland South (Eastern Victoria),235,Monash
Lilydale Heights College,LILYDALE,58,64.3,95,26,3.7,45335,48506,8506,45335,Lilydale Heights College,LILYDALE,VIC,3140,Government,Secondary,0,School Single Entity,-37.7458221,145.3414068,0,Major Cities,20656280000,21105127814,211051278,Lilydale - Coldstream,21105,Yarra Ranges,211,Melbourne - Outer East,27450,Yarra Ranges,22801,Evelyn (Eastern Victoria),206,Casey
Lilydale High School,LILYDALE,116,44.6,100,27,2,45415,48504,8504,45415,Lilydale High School,LILYDALE,VIC,3140,Government,Secondary,0,School Single Entity,-37.76073331,145.3452169,0,Major Cities,20653520000,21105127821,211051278,Lilydale - Coldstream,21105,Yarra Ranges,211,Melbourne - Outer East,27450,Yarra Ranges,22801,Evelyn (Eastern Victoria),206,Casey
Little Yarra Steiner School,YARRA JUNCTION,-,23.1,100,29,0,46313,45560,5560,46313,Little Yarra Steiner School,YARRA JUNCTION,VIC,3797,Independent,Combined,0,School Single Entity,-37.79444291,145.631163,1,Inner Regional,20631900490,21105128635,211051286,Yarra Valley,21105,Yarra Ranges,211,Melbourne - Outer East,27450,Yarra Ranges,22304,Eildon (Northern Victoria),206,Casey
Loreto College,BALLARAT,69,72,100,31,6.8,45638,40833,833,45638,Loreto College,BALLARAT,VIC,3350,Catholic,Secondary,0,School Head Campus,-37.55686069,143.8234695,1,Inner Regional,20009330000,20101100208,201011002,Ballarat,20101,Ballarat,201,Ballarat,20570,Ballarat,28508,Wendouree (Western Victoria),202,Ballarat
Loreto Mandeville Hall,TOORAK,14,98.7,100,35,26.4,45810,40836,836,45810,Loreto Mandeville Hall,TOORAK,VIC,3142,Catholic,Combined,0,School Single Entity,-37.848193,145.014892,0,Major Cities,20543840000,20606113828,206061138,Toorak,20606,Stonnington - West,206,Melbourne - Inner,26350,Stonnington,24606,Malvern (Southern Metropolitan),220,Higgins
Lorne P-12 College,LORNE,24,100,100,23,3.9,52491,49604,9604,52491,Lorne P-12 College,LORNE,VIC,3232,Government,Combined,0,School Single Entity,-38.53917804,143.9738904,1,Inner Regional,20562120000,20303104908,203031049,Lorne - Anglesea,20303,Surf Coast - Bellarine Peninsula,203,Geelong,26490,Surf Coast,26808,Polwarth (Western Victoria),238,Wannon
Lowanna College,NEWBOROUGH,135,32.6,97,26,2.5,45559,54787,14787,45559,Lowanna College,NEWBOROUGH,VIC,3825,Government,Secondary,0,School Single Entity,-38.17667934,146.2859798,1,Inner Regional,20343871000,20504109523,205041095,Moe - Newborough,20504,Latrobe Valley,205,Latrobe - Gippsland,23810,Latrobe (Vic.),25401,Morwell (Eastern Victoria),235,Monash
Loyola College,WATSONIA,143,82.3,99,30,4.7,46053,42485,2485,46053,Loyola College,WATSONIA,VIC,3087,Catholic,Secondary,0,School Single Entity,-37.703396,145.08073,0,Major Cities,20028890000,20901120410,209011204,Watsonia,20901,Banyule,209,Melbourne - North East,20660,Banyule,21602,Bundoora (North-Eastern Metropolitan),225,Jagajaga
Luther College,CROYDON HILLS,48,87.1,100,32,10.8,46223,55323,15323,46223,Luther College,CROYDON,VIC,3136,Independent,Secondary,0,School Single Entity,-37.783056,145.272743,0,Major Cities,20385260000,21103126525,211031265,Croydon Hills - Warranwood,21103,Maroondah,211,Melbourne - Outer East,24410,Maroondah,22102,Croydon (North-Eastern Metropolitan),211,Deakin
Lyndale Secondary College,DANDENONG NORTH,84,82.2,97,26,3.5,45416,49249,9249,45416,Lyndale Secondary College,DANDENONG NORTH,VIC,3175,Government,Secondary,0,School Single Entity,-37.957779,145.206752,0,Major Cities,20221360000,21204131223,212041312,Dandenong North,21204,Dandenong,212,Melbourne - South East,22670,Greater Dandenong,22205,Dandenong (South-Eastern Metropolitan),204,Bruce
Lyndhurst Secondary College,CRANBOURNE,164,46.2,98,27,1.5,45328,55450,15450,45328,Lyndhurst Secondary College,CRANBOURNE,VIC,3977,Government,Secondary,0,School Single Entity,-38.075011,145.271218,0,Major Cities,20120120000,21203156007,212031560,Cranbourne North - West,21203,Casey - South,212,Melbourne - South East,21610,Casey,25905,Narre Warren South (South-Eastern Metropolitan),221,Holt
Macleod College,MACLEOD,45,77.6,97,28,1.8,45311,48121,8121,45311,Macleod College,MACLEOD,VIC,3085,Government,Combined,0,School Single Entity,-37.724746,145.072218,0,Major Cities,20022760000,20901120330,209011203,Viewbank - Yallambie,20901,Banyule,209,Melbourne - North East,20660,Banyule,23802,Ivanhoe (North-Eastern Metropolitan),225,Jagajaga
Maffra Secondary College,MAFFRA,33,48.5,97,28,1,45418,52061,12061,45418,Maffra Secondary College,MAFFRA,VIC,3860,Government,Secondary,0,School Single Entity,-37.964888,146.982424,1,Inner Regional,20579630000,20505110123,205051101,Maffra,20505,Wellington,205,Latrobe - Gippsland,26810,Wellington,23201,Gippsland East (Eastern Victoria),216,Gippsland
Mallacoota P-12 College,MALLACOOTA,7,50,100,33,18.2,44613,46299,6299,44613,Mallacoota P-12 College,MALLACOOTA,VIC,3892,Government,Combined,0,School Single Entity,-37.559427,149.754296,2,Outer Regional,20631965940,20502108520,205021085,Orbost,20502,Gippsland - East,205,Latrobe - Gippsland,22110,East Gippsland,23201,Gippsland East (Eastern Victoria),216,Gippsland
Manor Lakes P-12 College,WYNDHAM VALE,256,46.7,92,24,3.2,45580,67632,27632,45580,Manor Lakes P-12 College,WYNDHAM VALE,VIC,3024,Government,Combined,0,School Single Entity,-37.874157,144.602275,0,Major Cities,20631946340,21305157909,213051579,Manor Lakes - Quandong,21305,Wyndham,213,Melbourne - West,27260,Wyndham,28607,Werribee (Western Metropolitan),228,Lalor
Mansfield Secondary College,MANSFIELD,89,34.9,100,29,6.3,45419,51690,11690,45419,Mansfield Secondary College,MANSFIELD,VIC,3724,Government,Secondary,0,School Head Campus,-37.062676,146.088565,2,Outer Regional,20370020000,20401105719,204011057,Mansfield (Vic.),20401,Upper Goulburn Valley,204,Hume,24250,Mansfield,22304,Eildon (Northern Victoria),223,Indi
Maranatha Christian School,ENDEAVOUR HILLS,34,69.5,100,31,7.7,46226,40839,839,46226,Maranatha Christian School,ENDEAVOUR HILLS,VIC,3802,Independent,Combined,0,School Head Campus,-37.970919,145.278034,0,Major Cities,20126590000,21202145312,212021453,Endeavour Hills - North,21202,Casey - North,212,Melbourne - South East,21610,Casey,25805,Narre Warren North (South-Eastern Metropolitan),204,Bruce
Marcellin College,BULLEEN,157,82,100,31,5.1,45874,55687,15687,45874,Marcellin College,BULLEEN,VIC,3105,Catholic,Secondary,0,School Single Entity,-37.774782,145.082675,0,Major Cities,20369590000,20702115621,207021156,Bulleen,20702,Manningham - West,207,Melbourne - Inner East,24210,Manningham,21502,Bulleen (North-Eastern Metropolitan),234,Menzies
Marist College Bendigo,MAIDEN GULLY,113,63.5,99,27,2.8,50698,70054,30054,50698,Marist College Bendigo,MAIDEN GULLY,VIC,3551,Catholic,Combined,0,School Single Entity,-36.73171249,144.2216905,1,Inner Regional,20215320000,20201102306,202011023,Maiden Gully,20201,Bendigo,202,Bendigo,22620,Greater Bendigo,20804,Bendigo West (Northern Victoria),203,Bendigo
Maryborough Education Centre,MARYBOROUGH,146,41.8,84,26,2.1,50200,63692,23692,50200,Maryborough Education Centre,MARYBOROUGH,VIC,3465,Government,Combined,0,School Head Campus,-37.041827,143.722657,1,Inner Regional,20701480000,20103101619,201031016,Maryborough (Vic.),20103,Maryborough - Pyrenees,201,Ballarat,21670,Central Goldfields,27308,Ripon (Western Victoria),230,Mallee
Marymede Catholic College,SOUTH MORANG,135,76.8,100,28,3.3,46117,57551,17551,46117,Marymede Catholic College,SOUTH MORANG,VIC,3752,Catholic,Combined,0,School Head Campus,-37.643315,145.091027,0,Major Cities,20632001210,20904143606,209041436,South Morang - South,20904,Whittlesea - Wallan,209,Melbourne - North East,27070,Whittlesea,25002,Mill Park (North-Eastern Metropolitan),237,Scullin
Mater Christi College,BELGRAVE,112,73.4,100,31,7.4,45970,56964,16964,45970,Mater Christi College,BELGRAVE,VIC,3160,Catholic,Secondary,0,School Single Entity,-37.9106377,145.3588871,0,Major Cities,20650490000,21105127408,211051274,Belgrave - Selby,21105,Yarra Ranges,211,Melbourne - Outer East,27450,Yarra Ranges,25101,Monbulk (Eastern Victoria),206,Casey
Mazenod College,MULGRAVE,329,80.2,100,33,13.5,45996,56398,16398,45996,Mazenod College,MULGRAVE,VIC,3170,Catholic,Secondary,0,School Single Entity,-37.915204,145.166144,0,Major Cities,20435130000,21205132533,212051325,Mulgrave,21205,Monash,212,Melbourne - South East,24970,Monash,25505,Mulgrave (South-Eastern Metropolitan),207,Chisholm
McClelland Secondary College,FRANKSTON,143,41,96,30,3.6,45571,56061,16061,45571,McClelland Secondary College,FRANKSTON,VIC,3199,Government,Secondary,0,School Head Campus,-38.14667462,145.1583658,0,Major Cities,20169910000,21401137218,214011372,Frankston North,21401,Frankston,214,Mornington Peninsula,22170,Frankston,23005,Frankston (South-Eastern Metropolitan),212,Dunkley
Melbourne Girls Grammar,SOUTH YARRA,4,96.3,100,36,28.7,46157,41281,1281,46157,Melbourne Girls Grammar,SOUTH YARRA,VIC,3141,Independent,Combined,0,School Head Campus,-37.835293,144.988851,0,Major Cities,20543650000,20606151503,206061515,South Yarra - North,20606,Stonnington - West,206,Melbourne - Inner,26350,Stonnington,26906,Prahran (Southern Metropolitan),220,Higgins
Melbourne Grammar School,MELBOURNE,< 4,97.6,100,36,28,46137,69056,29056,46137,Melbourne Grammar School,MELBOURNE,VIC,3004,Independent,Combined,0,School Head Campus,-37.833451,144.975911,0,Major Cities,20400190000,20604112508,206041125,South Yarra - West,20604,Melbourne City,206,Melbourne - Inner,24600,Melbourne,26906,Prahran (Southern Metropolitan),229,Macnamara
Melbourne High School,SOUTH YARRA,4,96.4,100,36,28.5,45423,48508,8508,45423,Melbourne High School,SOUTH YARRA,VIC,3141,Government,Secondary,0,School Head Campus,-37.836829,144.995314,0,Major Cities,20545740000,20606151513,206061515,South Yarra - North,20606,Stonnington - West,206,Melbourne - Inner,26350,Stonnington,26906,Prahran (Southern Metropolitan),220,Higgins
Melton Christian College,BROOKFIELD,53,79.1,100,26,0.8,46303,56402,16402,46303,Melton Christian College,BROOKFIELD,VIC,3338,Independent,Combined,0,School Head Campus,-37.701012,144.560365,0,Major Cities,20408600000,21304157110,213041571,Brookfield,21304,Melton - Bacchus Marsh,213,Melbourne - West,24650,Melton,24808,Melton (Western Victoria),219,Hawke
Melton Secondary College,MELTON,224,50,83,24,1.2,45424,50064,10064,45424,Melton Secondary College,MELTON,VIC,3337,Government,Secondary,0,School Head Campus,-37.68244498,144.5668819,0,Major Cities,20409670000,21304135824,213041358,Melton West,21304,Melton - Bacchus Marsh,213,Melbourne - West,24650,Melton,24808,Melton (Western Victoria),219,Hawke
Mentone Girls' Grammar School,MENTONE,36,98.7,100,36,22.2,46195,40856,856,46195,Mentone Girls' Grammar School,MENTONE,VIC,3194,Independent,Combined,0,School Single Entity,-37.989376,145.064534,0,Major Cities,20308690000,20803119029,208031190,Mentone,20803,Kingston,208,Melbourne - Inner South,23430,Kingston (Vic.),27506,Sandringham (Southern Metropolitan),224,Isaacs
Mentone Grammar School,MENTONE,38,94.9,99,35,21.5,46184,40857,857,46184,Mentone Grammar School,MENTONE,VIC,3194,Independent,Combined,0,School Single Entity,-37.987688,145.068124,0,Major Cities,20316890000,20803119028,208031190,Mentone,20803,Kingston,208,Melbourne - Inner South,23430,Kingston (Vic.),27506,Sandringham (Southern Metropolitan),224,Isaacs
Merbein P-10 College,MERBEIN,36,-,-,-,-,45612,68786,28786,45612,Merbein P-10 College,MERBEIN,VIC,3505,Government,Combined,0,School Single Entity,-34.16936534,142.0713085,2,Outer Regional,20412820000,21502139601,215021396,Merbein,21502,Mildura,215,North West,24780,Mildura,24904,Mildura (Northern Victoria),230,Mallee
Mercy College,COBURG,28,96.7,89,29,6.2,45985,40859,859,45985,Mercy College,COBURG NORTH,VIC,3058,Catholic,Secondary,0,School Single Entity,-37.730398,144.964562,0,Major Cities,20631939010,21003123613,210031236,Coburg North,21003,Moreland - North,210,Melbourne - North West,24700,Merri-bek,26603,Pascoe Vale (Northern Metropolitan),239,Wills
Mercy Regional College,CAMPERDOWN,87,60.7,100,27,5,45745,42077,2077,45745,Mercy Regional College,CAMPERDOWN,VIC,3260,Catholic,Secondary,0,School Head Campus,-38.234124,143.140746,1,Inner Regional,20136740000,21703147108,217031471,Camperdown,21703,Colac - Corangamite,217,Warrnambool and South West,21830,Corangamite,26808,Polwarth (Western Victoria),238,Wannon
Mernda Central P-12 College,MERNDA,129,59.1,100,28,5.7,52478,84907,84906,52478,Mernda Central P-12 College,MERNDA,VIC,3754,Government,Combined,0,School Single Entity,-37.603959,145.087925,0,Major Cities,20632000350,20904153203,209041532,Mernda - South,20904,Whittlesea - Wallan,209,Melbourne - North East,27070,Whittlesea,28804,Yan Yean (Northern Victoria),237,Scullin
Mildura Senior College,MILDURA,491,45.6,94,26,2.8,40562,50915,10915,40562,Mildura Senior College,MILDURA,VIC,3502,Government,Secondary,0,School Head Campus,-34.19800387,142.1453901,2,Outer Regional,20413130000,21502147003,215021470,Mildura - South,21502,Mildura,215,North West,24780,Mildura,24904,Mildura (Northern Victoria),230,Mallee
Mill Park Secondary College,EPPING,126,72.1,96,26,2.4,45524,54772,14772,45524,Mill Park Secondary College,MILL PARK,VIC,3082,Government,Secondary,0,School Head Campus,-37.66390279,145.0628602,0,Major Cities,20612960000,20904122031,209041220,Mill Park - North,20904,Whittlesea - Wallan,209,Melbourne - North East,27070,Whittlesea,25002,Mill Park (North-Eastern Metropolitan),237,Scullin
Monbulk College,MONBULK,86,57.4,98,25,5.1,45427,46283,6283,45427,Monbulk College,MONBULK,VIC,3793,Government,Secondary,0,School Single Entity,-37.88317535,145.4278068,0,Major Cities,20660380000,21105127903,211051279,Monbulk - Silvan,21105,Yarra Ranges,211,Melbourne - Outer East,27450,Yarra Ranges,25101,Monbulk (Eastern Victoria),206,Casey
Monivae College,HAMILTON,131,43.4,97,27,1.2,45893,56092,16092,45893,Monivae College,HAMILTON,VIC,3300,Catholic,Secondary,0,School Single Entity,-37.74203709,142.0494536,1,Inner Regional,20541280000,21701142107,217011421,Hamilton (Vic.),21701,Glenelg - Southern Grampians,217,Warrnambool and South West,26260,Southern Grampians,24408,Lowan (Western Victoria),238,Wannon
Monterey Secondary College,FRANKSTON NORTH,134,6.3,88,21,4.5,45547,46290,6290,45547,Monterey Secondary College,FRANKSTON NORTH,VIC,3200,Government,Secondary,0,School Single Entity,-38.12672883,145.1479305,0,Major Cities,20169830000,21401137242,214011372,Frankston North,21401,Frankston,214,Mornington Peninsula,22170,Frankston,23005,Frankston (South-Eastern Metropolitan),212,Dunkley
Mooroolbark College,MOOROOLBARK,154,52.9,91,28,2.1,45429,54798,14798,45429,Mooroolbark College,MOOROOLBARK,VIC,3138,Government,Secondary,0,School Single Entity,-37.77508326,145.3142304,0,Major Cities,20652010000,21105128128,211051281,Mooroolbark,21105,Yarra Ranges,211,Melbourne - Outer East,27450,Yarra Ranges,22801,Evelyn (Eastern Victoria),206,Casey
Mordialloc College,MORDIALLOC,111,76.5,99,30,7,45431,49398,9398,45431,Mordialloc College,MORDIALLOC,VIC,3195,Government,Secondary,0,School Single Entity,-38.012301,145.09199,0,Major Cities,20325840000,20803118919,208031189,Edithvale - Aspendale,20803,Kingston,208,Melbourne - Inner South,23430,Kingston (Vic.),25205,Mordialloc (South-Eastern Metropolitan),224,Isaacs
Mornington Secondary College,MORNINGTON,220,43.9,98,27,4.3,45542,46205,6205,45542,Mornington Secondary College,MORNINGTON,VIC,3931,Government,Secondary,0,School Single Entity,-38.2182617,145.0588104,0,Major Cities,20501890000,21402159209,214021592,Mornington - West,21402,Mornington Peninsula,214,Mornington Peninsula,25340,Mornington Peninsula,25301,Mornington (Eastern Victoria),213,Flinders
Mount Clear College,MOUNT CLEAR,187,48,86,26,1.4,45339,46158,6158,45339,Mount Clear College,MOUNT CLEAR,VIC,3350,Government,Secondary,0,School Head Campus,-37.60741829,143.8767265,1,Inner Regional,20013300000,20101148322,201011483,Canadian - Mount Clear,20101,Ballarat,201,Ballarat,20570,Ballarat,22608,Eureka (Western Victoria),202,Ballarat
Mount Evelyn Christian School,MOUNT EVELYN,67,38.3,100,29,2.1,46229,40868,868,46229,Mount Evelyn Christian School,MOUNT EVELYN,VIC,3796,Independent,Combined,0,School Head Campus,-37.79883442,145.3670969,0,Major Cities,20657520000,21105128012,211051280,Montrose,21105,Yarra Ranges,211,Melbourne - Outer East,27450,Yarra Ranges,22801,Evelyn (Eastern Victoria),206,Casey
Mount Lilydale Mercy College,LILYDALE,231,74.1,100,29,2.7,45706,40869,869,45706,Mount Lilydale Mercy College,LILYDALE,VIC,3140,Catholic,Secondary,0,School Single Entity,-37.75075881,145.3577545,0,Major Cities,20631921210,21105127824,211051278,Lilydale - Coldstream,21105,Yarra Ranges,211,Melbourne - Outer East,27450,Yarra Ranges,22801,Evelyn (Eastern Victoria),206,Casey
Mount Ridley P-12 College,CRAIGIEBURN,171,70.5,99,24,1.3,45585,67630,27630,45585,Mount Ridley P-12 College,CRAIGIEBURN,VIC,3064,Government,Combined,0,School Single Entity,-37.58027078,144.9234218,0,Major Cities,20631928350,21005144221,210051442,Craigieburn - North,21005,Tullamarine - Broadmeadows,210,Melbourne - North West,23270,Hume,23903,Kalkallo (Northern Metropolitan),205,Calwell
Mount Rowan Secondary College,WENDOUREE,72,48,88,28,1.4,45565,10164,25736,45565,Mount Rowan Secondary College,WENDOUREE,VIC,3355,Government,Secondary,0,School Head Campus,-37.51987872,143.83419,1,Inner Regional,20011900000,20101100811,201011008,Wendouree - Miners Rest,20101,Ballarat,201,Ballarat,20570,Ballarat,28508,Wendouree (Western Victoria),202,Ballarat
Mount Scopus Memorial College,BURWOOD,182,98.4,100,37,30.8,46208,40872,872,46208,Mount Scopus Memorial College,BURWOOD,VIC,3125,Independent,Combined,0,School Head Campus,-37.847216,145.117774,0,Major Cities,20593110000,20703116526,207031165,Burwood (Vic.),20703,Whitehorse - West,207,Melbourne - Inner East,26980,Whitehorse,21102,Box Hill (North-Eastern Metropolitan),207,Chisholm
Mount St Joseph Girls' College,ALTONA,58,86.3,98,31,7.1,45964,56965,16965,45964,Mount St Joseph Girls' College,ALTONA,VIC,3018,Catholic,Secondary,0,School Single Entity,-37.863902,144.811674,0,Major Cities,20276130000,21302134104,213021341,Altona,21302,Hobsons Bay,213,Melbourne - West,23110,Hobsons Bay,28707,Williamstown (Western Metropolitan),215,Gellibrand
Mt Hira College,KEYSBOROUGH,39,68.9,100,29,0,46359,57042,17042,46359,Mt Hira College,KEYSBOROUGH,VIC,3173,Independent,Combined,0,School Single Entity,-38.013991,145.175471,0,Major Cities,20631994350,21204156609,212041566,Keysborough - South,21204,Dandenong,212,Melbourne - South East,22670,Greater Dandenong,25205,Mordialloc (South-Eastern Metropolitan),224,Isaacs
Murrayville Community College,MURRAYVILLE,6,-,86,28,0,45223,54789,14789,45223,Murrayville Community College,MURRAYVILLE,VIC,3512,Government,Combined,0,School Single Entity,-35.26557452,141.1773365,3,Remote,20415170000,21502139814,215021398,Mildura Surrounds,21502,Mildura,215,North West,24780,Mildura,24904,Mildura (Northern Victoria),230,Mallee
Myrtleford P-12 College,MYRTLEFORD,34,38.1,90,24,3.2,40584,51710,11710,40584,Myrtleford P-12 College,MYRTLEFORD,VIC,3736,Government,Combined,0,School Single Entity,-36.54888702,146.7261447,1,Inner Regional,20002090000,20403107115,204031071,Myrtleford,20403,Wodonga - Alpine,204,Hume,20110,Alpine,26404,Ovens Valley (Northern Victoria),223,Indi
Nagle College,BAIRNSDALE,141,57.8,99,28,3,45933,40873,873,45933,Nagle College,BAIRNSDALE,VIC,3875,Catholic,Secondary,0,School Single Entity,-37.837096,147.587656,2,Outer Regional,20631984510,20502108134,205021081,Bairnsdale,20502,Gippsland - East,205,Latrobe - Gippsland,22110,East Gippsland,23201,Gippsland East (Eastern Victoria),216,Gippsland
Nathalia Secondary College,NATHALIA,37,40,90,20,2.9,45438,51488,11488,45438,Nathalia Secondary College,NATHALIA,VIC,3638,Government,Secondary,0,School Single Entity,-36.059901,145.208438,1,Inner Regional,20631924700,21602141317,216021413,Numurkah,21602,Moira,216,Shepparton,24900,Moira,27604,Shepparton (Northern Victoria),236,Nicholls
Nazareth College,NOBLE PARK NORTH,85,69.4,100,28,1.8,46079,45558,5558,46079,Nazareth College,WAVERLEY GARDENS,VIC,3174,Catholic,Secondary,0,School Single Entity,-37.940226,145.195459,0,Major Cities,20223630000,21204131606,212041316,Noble Park North,21204,Dandenong,212,Melbourne - South East,22670,Greater Dandenong,25505,Mulgrave (South-Eastern Metropolitan),204,Bruce
Newcomb Secondary College,NEWCOMB,85,14.3,88,25,1,45440,49572,9572,45440,Newcomb Secondary College,NEWCOMB,VIC,3219,Government,Secondary,0,School Head Campus,-38.171306,144.395063,0,Major Cities,20235030000,20302104535,203021045,Newcomb - Moolap,20302,Geelong,203,Geelong,22750,Greater Geelong,23108,Geelong (Western Victoria),210,Corio
Newhaven College,RHYLL,33,74.5,99,30,5.1,46260,77479,15836,46260,Newhaven College,RHYLL,VIC,3923,Independent,Combined,0,School Single Entity,-38.489711,145.26554,1,Inner Regional,20033022000,20503109114,205031091,Phillip Island,20503,Gippsland - South West,205,Latrobe - Gippsland,20740,Bass Coast,20301,Bass (Eastern Victoria),235,Monash
Nhill College,NHILL,14,61.5,92,23,0,45569,50708,10708,45569,Nhill College,NHILL,VIC,3418,Government,Combined,0,School Single Entity,-36.33260253,141.65886,2,Outer Regional,20275620000,21501139001,215011390,Nhill Region,21501,Grampians,215,North West,22980,Hindmarsh,24408,Lowan (Western Victoria),230,Mallee
Noble Park Secondary College,NOBLE PARK,68,68.1,100,25,0.5,45551,46231,6231,45551,Noble Park Secondary College,NOBLE PARK,VIC,3174,Government,Secondary,0,School Single Entity,-37.970209,145.182369,0,Major Cities,20229400000,21204145917,212041459,Noble Park - East,21204,Dandenong,212,Melbourne - South East,22670,Greater Dandenong,22205,Dandenong (South-Eastern Metropolitan),222,Hotham
Northcote High School,NORTHCOTE,146,88.1,99,30,8.5,45442,55028,15028,45442,Northcote High School,NORTHCOTE,VIC,3070,Government,Secondary,0,School Head Campus,-37.774156,144.989706,0,Major Cities,20141630000,20602150024,206021500,Northcote - West,20602,Darebin - South,206,Melbourne - Inner,21890,Darebin,26203,Northcote (Northern Metropolitan),208,Cooper
Northern Bay P-12 College,CORIO,186,41,89,24,2.2,50291,69152,29152,50291,Northern Bay P-12 College,CORIO,VIC,3214,Government,Combined,0,School Head Campus,-38.079288,144.355525,0,Major Cities,20238670000,20302148622,203021486,Corio - Lovely Banks,20302,Geelong,203,Geelong,22750,Greater Geelong,24208,Lara (Western Victoria),210,Corio
Northside Christian College,BUNDOORA,38,87,100,30,13.1,46251,42466,2466,46251,Northside Christian College,BUNDOORA,VIC,3083,Independent,Combined,0,School Single Entity,-37.69501422,145.0546707,0,Major Cities,20612280000,20904121709,209041217,Bundoora - West,20904,Whittlesea - Wallan,209,Melbourne - North East,27070,Whittlesea,21602,Bundoora (North-Eastern Metropolitan),237,Scullin
Norwood Secondary College,RINGWOOD,144,54.7,97,29,5.7,45443,48411,8411,45443,Norwood Secondary College,RINGWOOD,VIC,3134,Government,Secondary,0,School Single Entity,-37.800473,145.238246,0,Major Cities,20390400000,21103126609,211031266,Ringwood,21103,Maroondah,211,Melbourne - Outer East,24410,Maroondah,27202,Ringwood (North-Eastern Metropolitan),211,Deakin
Nossal High School,BERWICK,19,100,100,36,27.6,45594,68202,28202,45594,Nossal High School,BERWICK,VIC,3806,Government,Secondary,0,School Single Entity,-38.03906593,145.3363137,0,Major Cities,20114340000,21202129312,212021293,Berwick - North,21202,Casey - North,212,Melbourne - South East,21610,Casey,21005,Berwick (South-Eastern Metropolitan),204,Bruce
Notre Dame College,SHEPPARTON,653,60.7,99,28,4.1,45715,44767,4767,45715,Notre Dame College,SHEPPARTON,VIC,3630,Catholic,Secondary,0,School Head Campus,-36.37470646,145.4076363,1,Inner Regional,20267150000,21603141620,216031416,Shepparton - North,21603,Shepparton,216,Shepparton,22830,Greater Shepparton,27604,Shepparton (Northern Victoria),236,Nicholls
Numurkah Secondary College,NUMURKAH,31,44.4,78,24,0,45444,51484,11484,45444,Numurkah Secondary College,NUMURKAH,VIC,3636,Government,Secondary,0,School Single Entity,-36.079948,145.446271,1,Inner Regional,20422130000,21602141324,216021413,Numurkah,21602,Moira,216,Shepparton,24900,Moira,27604,Shepparton (Northern Victoria),236,Nicholls
Oakleigh Grammar,OAKLEIGH,< 4,82.1,97,31,4.7,46287,44207,4207,46287,Oakleigh Grammar,OAKLEIGH,VIC,3166,Independent,Combined,0,School Single Entity,-37.895907,145.082819,0,Major Cities,20425400000,20802118005,208021180,Hughesdale,20802,Glen Eira,208,Melbourne - Inner South,24970,Monash,26306,Oakleigh (Southern Metropolitan),222,Hotham
Oakwood School,CAULFIELD NORTH,75,-,-,I/D,I/D,45468,49268,9268,45468,Oakwood School,CAULFIELD NORTH,VIC,3161,Government,Secondary,0,School Head Campus,-37.87398,145.034173,0,Major Cities,20191210000,20802117707,208021177,Caulfield - North,20802,Glen Eira,208,Melbourne - Inner South,22310,Glen Eira,21806,Caulfield (Southern Metropolitan),229,Macnamara
Oberon High School,ARMSTRONG CREEK,87,49.5,97,28,4,45445,49563,9563,45445,Oberon High School,Armstrong Creek,VIC,3217,Government,Secondary,0,School Single Entity,-38.23066802,144.3640703,0,Major Cities,21339320000,20303148910,203031489,Barwon Heads - Armstrong Creek,20303,Surf Coast - Bellarine Peninsula,203,Geelong,22750,Greater Geelong,27708,South Barwon (Western Victoria),209,Corangamite
Officer Secondary College,OFFICER,140,52.4,94,28,4.2,51485,70276,30276,51485,Officer Secondary College,OFFICER,VIC,3809,Government,Secondary,0,School Single Entity,-38.06970435,145.411463,0,Major Cities,20632006390,21201154643,212011546,Beaconsfield - Officer,21201,Cardinia,212,Melbourne - South East,21450,Cardinia,26501,Pakenham (Eastern Victoria),227,La Trobe
OneSchool Global Vic,MELTON WEST,101,1.9,100,31,7.6,46360,57293,17293,46360,OneSchool Global Vic,MELTON WEST,VIC,3337,Independent,Combined,0,School Head Campus,-37.68630891,144.5422558,0,Major Cities,20631960140,21304135812,213041358,Melton West,21304,Melton - Bacchus Marsh,213,Melbourne - West,24650,Melton,24808,Melton (Western Victoria),219,Hawke
Orbost Secondary College,ORBOST,52,61.9,95,25,5.6,45446,46217,6217,53310,Orbost Secondary College,ORBOST,VIC,3888,Government,Secondary,0,School Head Campus,-37.704106,148.466353,2,Outer Regional,20160740000,20502108509,205021085,Orbost,20502,Gippsland - East,205,Latrobe - Gippsland,22110,East Gippsland,23201,Gippsland East (Eastern Victoria),216,Gippsland
Our Lady of Mercy College,HEIDELBERG,135,92.7,99,32,9.6,45760,40888,888,45760,Our Lady of Mercy College,HEIDELBERG,VIC,3084,Catholic,Secondary,0,School Single Entity,-37.75793,145.067586,0,Major Cities,20023180000,20901119814,209011198,Heidelberg - Rosanna,20901,Banyule,209,Melbourne - North East,20660,Banyule,23802,Ivanhoe (North-Eastern Metropolitan),225,Jagajaga
Our Lady of Sion College,BOX HILL,66,93.1,100,32,7.8,45823,40893,893,45823,Our Lady of Sion College,BOX HILL,VIC,3128,Catholic,Secondary,0,School Single Entity,-37.8184,145.13,0,Major Cities,20589180000,20703116318,207031163,Box Hill,20703,Whitehorse - West,207,Melbourne - Inner East,26980,Whitehorse,21102,Box Hill (North-Eastern Metropolitan),234,Menzies
Ouyen P-12 College,OUYEN,24,40,100,29,0,45447,50898,10898,45447,Ouyen P-12 College,OUYEN,VIC,3490,Government,Combined,0,School Single Entity,-35.064571,142.322608,2,Outer Regional,20414960000,21502139806,215021398,Mildura Surrounds,21502,Mildura,215,North West,24780,Mildura,24904,Mildura (Northern Victoria),230,Mallee
Oxley Christian College,CHIRNSIDE PARK,5,88.9,100,34,21.9,46255,57617,17617,46255,Oxley Christian College,CHIRNSIDE PARK,VIC,3116,Independent,Combined,0,School Single Entity,-37.76293666,145.3043162,0,Major Cities,20653320000,21105127512,211051275,Chirnside Park,21105,Yarra Ranges,211,Melbourne - Outer East,27450,Yarra Ranges,28402,Warrandyte (North-Eastern Metropolitan),206,Casey
Ozford College,MELBOURNE,-,37.5,83,20,0,40714,86628,17944,40714,Ozford College,MELBOURNE,VIC,3000,Independent,Secondary,0,School Head Campus,-37.8105641,144.9685965,0,Major Cities,20393841000,20604150313,206041503,Melbourne CBD - East,20604,Melbourne City,206,Melbourne - Inner,24600,Melbourne,24703,Melbourne (Northern Metropolitan),233,Melbourne
Padua College,MORNINGTON,309,61.6,99,29,4.6,45713,40909,909,45713,Padua College,MORNINGTON,VIC,3931,Catholic,Secondary,0,School Head Campus,-38.21825666,145.0720043,0,Major Cities,20498000000,21402159119,214021591,Mornington - East,21402,Mornington Peninsula,214,Mornington Peninsula,25340,Mornington Peninsula,25301,Mornington (Eastern Victoria),213,Flinders
Pakenham Secondary College,PAKENHAM,106,73.1,99,27,1.2,45449,51854,11854,45449,Pakenham Secondary College,PAKENHAM,VIC,3810,Government,Secondary,0,School Single Entity,-38.06907933,145.4711008,0,Major Cities,20103280000,21201155222,212011552,Pakenham - South West,21201,Cardinia,212,Melbourne - South East,21450,Cardinia,26501,Pakenham (Eastern Victoria),227,La Trobe
Parade College,BUNDOORA,365,73.2,99,30,4.8,45629,54105,14105,45629,Parade College,BUNDOORA,VIC,3083,Catholic,Secondary,0,School Head Campus,-37.690178,145.066978,0,Major Cities,20029360000,20901119613,209011196,Bundoora - East,20901,Banyule,209,Melbourne - North East,20660,Banyule,21602,Bundoora (North-Eastern Metropolitan),225,Jagajaga
Parkdale Secondary College,MORDIALLOC,222,56.7,99,30,5.9,45450,49400,9400,45450,Parkdale Secondary College,MORDIALLOC,VIC,3195,Government,Secondary,0,School Single Entity,-37.989637,145.094101,0,Major Cities,20311380000,20803119301,208031193,Mordialloc - Parkdale,20803,Kingston,208,Melbourne - Inner South,23430,Kingston (Vic.),25205,Mordialloc (South-Eastern Metropolitan),224,Isaacs
Parkville College,PARKVILLE,107,-,100,-,-,50576,29988,29989,50576,Parkville College,PARKVILLE,VIC,3052,Government,Secondary,1,School Head Campus,-37.778764,144.942622,0,Major Cities,20668240000,20604112409,206041124,Parkville,20604,Melbourne City,206,Melbourne - Inner,24600,Melbourne,24703,Melbourne (Northern Metropolitan),233,Melbourne
Peninsula Grammar,MOUNT ELIZA,48,83.1,99,33,15.1,46219,57252,17252,46219,Peninsula Grammar,MOUNT ELIZA,VIC,3930,Independent,Combined,0,School Single Entity,-38.198174,145.090692,0,Major Cities,20501680000,21402138123,214021381,Mount Eliza,21402,Mornington Peninsula,214,Mornington Peninsula,25340,Mornington Peninsula,25301,Mornington (Eastern Victoria),212,Dunkley
Penola Catholic College,BROADMEADOWS,331,76.3,99,28,3.1,46096,54377,14377,46096,Penola Catholic College,BROADMEADOWS,VIC,3047,Catholic,Secondary,0,School Head Campus,-37.6888,144.92,0,Major Cities,20291240000,21005124206,210051242,Broadmeadows,21005,Tullamarine - Broadmeadows,210,Melbourne - North West,23270,Hume,21303,Broadmeadows (Northern Metropolitan),205,Calwell
Peter Lalor Secondary College,LALOR,94,22.7,86,-,-,45334,55516,15516,45334,Peter Lalor Secondary College,LALOR,VIC,3075,Government,Secondary,0,School Single Entity,-37.66841894,145.0139329,0,Major Cities,20616440000,20904153014,209041530,Lalor - West,20904,Whittlesea - Wallan,209,Melbourne - North East,27070,Whittlesea,28303,Thomastown (Northern Metropolitan),237,Scullin
Plenty River College,SOUTH MORANG,29,-,100,-,-,53092,87891,87890,53092,Plenty River College,SOUTH MORANG,VIC,3752,Independent,Secondary,0,School Single Entity,-37.64856605,145.0815677,0,Major Cities,20631914610,20904143610,209041436,South Morang - South,20904,Whittlesea - Wallan,209,Melbourne - North East,27070,Whittlesea,25002,Mill Park (North-Eastern Metropolitan),237,Scullin
Plenty Valley Christian College,DOREEN,44,70.5,97,29,5.1,46269,43425,3425,46269,Plenty Valley Christian College,DOREEN,VIC,3754,Independent,Combined,0,School Single Entity,-37.613463,145.138791,0,Major Cities,20517770000,20903121214,209031212,Panton Hill - St Andrews,20903,Nillumbik - Kinglake,209,Melbourne - North East,25710,Nillumbik,28804,Yan Yean (Northern Victoria),232,McEwen
Portland Secondary College,PORTLAND,101,45.6,100,24,0.4,45534,49970,9970,45534,Portland Secondary College,PORTLAND,VIC,3305,Government,Secondary,0,School Head Campus,-38.35882225,141.5955033,2,Outer Regional,20201060000,21701142217,217011422,Portland,21701,Glenelg - Southern Grampians,217,Warrnambool and South West,22410,Glenelg,27808,South-West Coast (Western Victoria),238,Wannon
Prahran High School,WINDSOR,48,79.7,97,30,5.3,52698,86069,86068,52698,Prahran High School,WINDSOR,VIC,3181,Government,Secondary,0,School Single Entity,-37.851621,144.991306,0,Major Cities,20548711000,20606113641,206061136,Prahran - Windsor,20606,Stonnington - West,206,Melbourne - Inner,26350,Stonnington,26906,Prahran (Southern Metropolitan),220,Higgins
Presbyterian Ladies' College,BURWOOD,< 4,99.4,100,36,25.9,46162,40913,913,46162,Presbyterian Ladies' College,BURWOOD,VIC,3125,Independent,Combined,0,School Single Entity,-37.848946,145.107125,0,Major Cities,20631994730,20703116506,207031165,Burwood (Vic.),20703,Whitehorse - West,207,Melbourne - Inner East,26980,Whitehorse,21102,Box Hill (North-Eastern Metropolitan),207,Chisholm
